,Station Name,Available Bikes,Empty Slots,Latitude,Longitude
0,W 100 St & Manhattan Ave,5,29,40.795,-73.9645
1,7 Ave & Central Park South,2,76,40.7667405590595,-73.9790689945221
2,Bedford Ave & Bergen St,2,15,40.676368,-73.952918
3,28 St & 41 Ave,12,12,40.751047,-73.93797
4,Frederick Douglass Blvd & W 112 St,14,14,40.801694,-73.957145
5,3 Ave & E 112 St,16,5,40.795508,-73.941606
6,8 Ave & W 31 St,89,7,40.7505853470215,-73.9946848154068
7,Bergen St & Vanderbilt Ave,3,23,40.6794388,-73.9680438
8,Monroe St & Bedford Ave,6,12,40.6851443,-73.95380904
9,35 Ave & 37 St,16,11,40.7557327,-73.9236611
10,Bank St & Hudson St,10,11,40.73652889,-74.00618026
11,Greenwich St & W Houston St,66,14,40.728846,-74.008591
12,Madison St & Clinton St,9,31,40.71269042,-73.98776323
13,Stanton St & Mangin St,13,6,40.71782143,-73.97628939
14,Clinton Ave & Flushing Ave,16,3,40.69794,-73.96986848
15,Rivington St & Ridge St,51,3,40.71850211,-73.98329859
16,E 114 St & 1 Ave,19,5,40.7945663,-73.9362541
17,Columbia St & Lorraine St,36,0,40.6747055,-74.0075572
18,11 Ave & W 41 St,1,51,40.76030096,-73.99884222
19,Riverside Dr & W 104 St,18,31,40.8013434,-73.9711457439
20,Dwight St & Van Dyke St,23,0,40.67363551341504,-74.01195555925369
21,E 97 St & Madison Ave,30,10,40.787801,-73.953559
22,Union St & 4 Ave,22,5,40.6772744,-73.98282002
23,Berkeley Pl & 6 Ave,26,13,40.6765304,-73.97846879
24,Waterbury St & Stagg St,12,10,40.71019,-73.93734
25,3 Ave & Schermerhorn St,14,18,40.68683208,-73.9796772
26,Pike St & E Broadway,23,7,40.71406667,-73.99293911
27,Lafayette St & E 8 St,78,17,40.73020660529954,-73.99102628231049
28,Knickerbocker Ave & Thames St,16,2,40.70539,-73.92976
29,Devoe St & Morgan Ave,18,0,40.713811,-73.93515
30,McKibbin St & Bogart St,30,0,40.706237,-73.933871
31,Central Ave & Flushing Ave,20,1,40.702831,-73.9333
32,Central Ave & Starr Street,5,0,40.700003,-73.92834
33,Knickerbocker Ave & George St,20,0,40.704425,-73.92836
34,Irving Ave & DeKalb Ave,18,9,40.7027,-73.92095
35,Adelphi St & Myrtle Ave,8,15,40.69308257,-73.97178913
36,1 Ave & E 68 St,23,33,40.76500525,-73.95818491
37,1 Ave & E 62 St,5,26,40.7612274,-73.96094022
38,5 Ave & E 78 St,31,2,40.77632142182271,-73.96427392959595
39,Washington Ave & Greene Ave,5,10,40.68650065,-73.96563307
40,Concord St & Bridge St,1,17,40.69766564,-73.98476437
41,Glenwood Ave,3,12,40.72755146730012,-74.07106071710587
42,Jay St & York St,32,4,40.701403172577244,-73.98672670125961
43,E 106 St & Madison Ave,20,5,40.7934337,-73.94945003
44,Smith St & 3 St,13,11,40.6787242,-73.99599099
45,Cathedral Pkwy & Broadway,6,16,40.804213,-73.96699104
46,3 St & Hoyt St,34,16,40.6777287,-73.99364123
47,W 34 St & 11 Ave,46,28,40.75594159,-74.0021163
48,E 33 St & 5 Ave,12,41,40.74765947,-73.98490707
49,E 51 St & Lexington Ave,1,73,40.75714758,-73.97207836
50,2 Ave & E 31 St,7,45,40.74290902,-73.97706058
51,St Johns Pl & Washington Ave,9,19,40.6737236,-73.9631611
52,Underhill Ave & Lincoln Pl,2,21,40.6740123,-73.9671457
53,Lincoln Pl & Classon Ave,0,25,40.6721683,-73.9609
54,Union St & Bedford Ave,1,22,40.6691783,-73.9554162
55,34 Ave & 13 St,18,0,40.7638753,-73.9364848
56,Bedford Ave & S 9 St,8,14,40.70853074,-73.96408963
57,E 45 St & 3 Ave,2,40,40.75255434,-73.97282625
58,E 10 St & Avenue A,14,88,40.72740794,-73.98142006
59,3 Ave & E 71 St,1,40,40.76873687,-73.96119945
60,E 81 St & York Ave,22,23,40.7728384,-73.94989233
61,Union Ave & N 12 St,34,4,40.71924,-73.95242
62,Graham Ave & Herbert St,12,12,40.71929301,-73.94500379
63,Hancock St & Bedford Ave,1,21,40.68216564,-73.95399026
64,Macon St & Nostrand Ave,9,13,40.6809833854,-73.9500479759
65,W 21 St & 6 Ave,40,31,40.74173969,-73.99415556
66,Irving Ave & Jefferson St,17,1,40.70538,-73.92535
67,Washington Pl & Broadway,21,3,40.72903917,-73.99404649
68,W 20 St & 7 Ave,8,35,40.74238787,-73.99726235
69,Pike St & Monroe St,19,5,40.71173107,-73.99193043
70,Reade St & Broadway,5,54,40.71450451,-74.00562789
71,Cherry St,19,13,40.71219906,-73.97948148
72,Warren St & Court St,12,16,40.686371,-73.99383324
73,E 98 St & Park Ave,21,1,40.78813,-73.95206
74,E 93 St & 2 Ave,53,19,40.782454175279874,-73.9489196240902
75,W 92 St & Broadway,2,18,40.7921,-73.9739
76,Bayard St & Leonard St,37,2,40.71915571696044,-73.94885390996933
77,Devoe St & Lorimer St,0,16,40.71335226222875,-73.9491033554077
78,Lenox Ave & W 126 St,29,0,40.808442,-73.9452087
79,Jackson St & Leonard St,12,5,40.71638031973561,-73.94821286201477
80,Leonard St & Maujer St,9,13,40.7103685423523,-73.94705951213837
81,31 St & Hoyt Ave N,8,26,40.7711528,-73.9170074
82,Astoria Park S & Shore Blvd,31,0,40.7767,-73.927631
83,St Nicholas Ave & Manhattan Ave,26,3,40.809725,-73.953149
84,Oakland Ave,17,9,40.7376037,-74.0524783
85,Hilltop,1,25,40.7311689,-74.0575736
86,Hamilton Park,22,2,40.727595966,-74.044247311
87,Newport PATH,8,8,40.7272235,-74.0337589
88,Brunswick St,2,20,40.7241765,-74.0506564
89,Broadway & Whipple St,11,12,40.7016657,-73.9437303
90,Willoughby St & Fleet St,30,26,40.69196566,-73.9813018
91,Washington St,9,7,40.7242941,-74.0354826
92,Harborside,6,23,40.7192517,-74.034234
93,31 St & Newtown Ave,13,22,40.7675487799971,-73.9209334552288
94,Frederick Douglass Blvd & W 115 St,21,6,40.8038654,-73.9559308
95,Nostrand Ave & Myrtle Ave,12,7,40.69527008,-73.95238108
96,Myrtle Ave & Marcy Ave,7,15,40.69539817,-73.94954908
97,Throop Ave & Myrtle Ave,16,5,40.69622937,-73.94371094
98,Bank St & Washington St,8,20,40.7361967,-74.00859207
99,Union Ave & Wallabout St,6,23,40.70029511,-73.95032283
100,Lorimer St & Broadway,23,3,40.70411791,-73.94818595
101,Coffey St & Conover St,28,1,40.677236,-74.015665
102,Humboldt St & Varet St,26,11,40.7031724,-73.940636
103,Pioneer St & Richards St,15,8,40.6777748,-74.0094613
104,Van Brunt St & Wolcott St,32,1,40.6773429,-74.01275056
105,Pioneer St & Van Brunt St,38,0,40.679043,-74.011169
106,Clinton St & Joralemon St,27,20,40.69239502,-73.99337909
107,W 13 St & 5 Ave,28,11,40.735445,-73.99431
108,47 Ave & Skillman Ave,16,1,40.7437524099784,-73.94176483154297
109,Vernon Blvd & 50 Ave,40,2,40.74232744,-73.95411749
110,Franklin St & Dupont St,8,17,40.73564,-73.95866
111,Milton St & Franklin St,19,10,40.72906,-73.95779
112,Meserole Ave & Manhattan Ave,19,3,40.72708584,-73.95299117
113,31 St & Broadway,17,18,40.761584,-73.925921
114,Crescent St & Broadway,2,15,40.7633589,-73.9286471
115,7 Ave & Park Pl,6,18,40.6776147,-73.97324283
116,Bergen St & Smith St,45,3,40.6867443,-73.99063168
117,Dean St & Hoyt St,70,3,40.6864442,-73.98759104
118,Bond St & Bergen St,24,0,40.6849668,-73.98620772
119,E 16 St & 5 Ave,44,13,40.73726186,-73.99238967
120,8 Ave & W 33 St,39,43,40.751551,-73.993934
121,10 St & 2 Ave,18,0,40.671907,-73.993612
122,Hoboken Ave at Monmouth St,14,17,40.73520838045357,-74.04696375131607
123,Henry St & Middagh St,4,25,40.7003,-73.991581
124,Allen St & Rivington St,22,14,40.72019576,-73.98997825
125,Market St & Cherry St,43,1,40.71076228,-73.99400398
126,Newton Rd & 44 St,3,14,40.7595701,-73.9142678
127,28 St & 36 Ave,11,18,40.757186,-73.932719
128,Verona Pl & Fulton St,4,14,40.6803560840434,-73.9476791024208
129,37 Ave & 35 St,0,25,40.7531106,-73.9279917
130,Crescent St & 35 Ave,16,8,40.7596276,-73.9321455
131,21 St & 36 Ave,16,2,40.7601853,-73.9362726
132,36 Ave & 10 St,14,3,40.7614376,-73.9411265
133,Monroe St & Tompkins Ave,9,5,40.686203,-73.944694
134,Franklin Ave & St Marks Ave,7,16,40.6758324,-73.9561677
135,Willoughby Ave & Walworth St,4,11,40.69331716,-73.95381995
136,Franklin Ave & Myrtle Ave,10,12,40.694546087246025,-73.95801365375519
137,6 Ave & Canal St,6,65,40.72243797,-74.00566443
138,John St & William St,18,23,40.70862144,-74.00722156
139,Duffield St & Willoughby St,13,33,40.69221589,-73.9842844
140,Lefferts Pl & Franklin Ave,11,9,40.680342423,-73.9557689392
141,St James Pl & Pearl St,22,1,40.71117416,-74.00016545
142,Atlantic Ave & Fort Greene Pl,23,34,40.68382604,-73.97632328
143,Lafayette Ave & St James Pl,14,24,40.68851534,-73.9647628
144,Atlantic Ave & Furman St,25,2,40.69165183,-73.9999786
145,Columbus Ave & W 103 St,2,36,40.7969347,-73.9643412291
146,Butler St & Court St,27,8,40.6849894,-73.99440329
147,Prospect Park West & 8 St,7,13,40.66514681533792,-73.97637605667114
148,Flushing Ave & Vanderbilt Ave,21,0,40.697950315695444,-73.97077560424805
149,North Moore St & Greenwich St,10,16,40.72019521437465,-74.0103006362915
150,Montgomery St & Franklin Ave,2,17,40.666439306870814,-73.9605563879013
151,36 Ave & 31 St,7,19,40.75651272984955,-73.92957486212252
152,Leonard St & Nassau Ave,15,19,40.7239567849954,-73.94984364509583
153,Myrtle Ave & St Edwards St,44,11,40.69327018,-73.97703874
154,Willoughby Ave & Hall St,10,35,40.69196035,-73.96536851
155,Perry St & Bleecker St,28,44,40.73535398,-74.00483091
156,DeKalb Ave & S Portland Ave,4,18,40.68981035,-73.97493121
157,E 72 St & York Ave,5,25,40.76663814,-73.95348296
158,W 67 St & Broadway,14,11,40.77492513,-73.98266566
159,Harrison St & Hudson St,20,16,40.71870987,-74.0090009
160,Laight St & Hudson St,14,65,40.72185379,-74.00771779
161,E 106 St & 1 Ave,15,8,40.7892529,-73.93956237
162,Richards St & Delavan St,16,2,40.6794327,-74.00785041
163,Commerce St & Van Brunt St,16,1,40.6812117,-74.00860912
164,Henry St & W 9 St,11,8,40.6763744,-74.00324957
165,Columbia St & W 9 St,18,2,40.6769993,-74.00647134
166,Court St & Nelson St,27,5,40.6763947,-73.99869893
167,Clinton St & 4 Place,14,9,40.6783563,-74.00014502
168,7 St & 3 Ave,19,1,40.67260298150126,-73.98983001708984
169,Smith St & 9 St,10,9,40.6746957,-73.99785768
170,W 43 St & 10 Ave,0,108,40.76009437,-73.99461843
171,12 Ave & W 40 St,25,42,40.76087502,-74.00277668
172,11 Ave & W 27 St,6,35,40.751396,-74.005226
173,21 St & 31 Dr,17,2,40.7659,-73.930819
174,Carroll St & Franklin Ave,0,18,40.6679411,-73.9588
175,Sullivan Pl & Bedford Ave,2,15,40.6642406,-73.9574686
176,35 St & Broadway,6,11,40.760339,-73.9222427
177,W 49 St & 8 Ave,16,45,40.76227205,-73.98788205
178,W 22 St & 8 Ave,9,52,40.74475148,-73.99915362
179,E 51 St & 1 Ave,2,28,40.75455731,-73.96592976
180,E 25 St & 1 Ave,5,23,40.7381765,-73.97738662
181,W 50 St & 9 Ave,4,24,40.763604677958625,-73.98917958140373
182,Park Pl & Church St,16,35,40.71334184275907,-74.00935515761375
183,N 11 St & Kent Ave,24,2,40.72248188638219,-73.95921930670738
184,Jackson Square,10,7,40.71113,-74.0789
185,W 64 St & Thelonious Monk Circle,5,38,40.77515953434235,-73.98918695747852
186,Union Ave & Jackson St,11,7,40.7160751,-73.952029
187,Roebling St & N 4 St,13,8,40.71469,-73.95739
188,Metropolitan Ave & Meeker Ave,13,9,40.71413311,-73.95234386
189,Graham Ave & Grand St,8,18,40.711863,-73.944024
190,S 4 St & Rodney St,1,18,40.70934,-73.95608
191,Hope St & Union Ave,4,17,40.71167351,-73.95141312
192,Riverview Park,6,12,40.7443187,-74.0439909
193,19 St & 24 Ave,5,17,40.7774552,-73.9225403
194,23 Ave & 27 St,13,7,40.776165,-73.9153175
195,37 St & 24 Ave,8,9,40.7701477,-73.9120938
196,24 Ave & 29 St,11,32,40.7729,-73.916142
197,W 90 St & Amsterdam Ave,8,20,40.79017948095081,-73.97288918495178
198,W 89 St & Columbus Ave,30,14,40.7882213,-73.97041561
199,Leonard Gordon Park,3,10,40.74590996631558,-74.0572714805603
200,Astor Place,7,5,40.71928220070702,-74.07126188278198
201,Morningside Dr & Amsterdam Ave,12,22,40.81028506306003,-73.95736455917358
202,W 52 St & 6 Ave,11,43,40.76132983124814,-73.97982001304626
203,Bergen Ave,6,7,40.722103786686034,-74.07145500183105
204,E 60 St & York Ave,18,13,40.759107,-73.959223
205,E 84 St & Park Ave,15,26,40.77862688,-73.95772073
206,E 81 St & 3 Ave,13,34,40.77573034,-73.9567526
207,5 Corners Library,1,16,40.734961020009514,-74.0595030784607
208,Dean St & Franklin Ave,5,12,40.67759206937376,-73.955637216568
209,Lincoln Park,2,16,40.7246050998869,-74.07840594649315
210,E 67 St & Park Ave,20,16,40.76780080148132,-73.96592080593109
211,W 42 St & Dyer Ave,17,0,40.75898481399634,-73.99379968643188
212,Lawrence St & Willoughby St,19,16,40.69236178,-73.98631746
213,Cadman Plaza E & Red Cross Pl,37,1,40.69991755,-73.98971773
214,Vesey Pl & River Terrace,45,9,40.7153379,-74.01658354
215,DeKalb Ave & Hudson Ave,49,15,40.689888,-73.981013
216,Watts St & Greenwich St,27,3,40.72405549,-74.00965965
217,Lenox Ave & W 117 St,20,7,40.8025566,-73.9490782
218,W 120 St & Claremont Ave,19,15,40.8109494,-73.9634
219,E 128 St & Madison Ave,15,1,40.80756,-73.939182
220,E 66 St & Madison Ave,4,20,40.76800889305947,-73.96845281124115
221,3 St & Prospect Park West,17,12,40.668132,-73.97363831
222,W 106 St & Amsterdam Ave,7,27,40.8008363,-73.9664492472
223,Amsterdam Ave & W 66 St,10,9,40.7746671,-73.98470567
224,E 102 St & 1 Ave,10,9,40.7869946,-73.94164802
225,Lewis Ave & Kosciuszko St,11,9,40.69237074,-73.93705428
226,Pulaski St & Marcus Garvey Blvd,5,10,40.6933982,-73.939877
227,Kosciuszko St & Nostrand Ave,9,8,40.69072549,-73.95133465
228,Kosciuszko St & Tompkins Ave,5,13,40.69128258,-73.9452416
229,Greene Ave & Throop Ave,4,13,40.6894932,-73.942061
230,Greene Ave & Nostrand Ave,9,10,40.6883337,-73.950916
231,Marcy Ave & Lafayette Ave,12,10,40.6900815,-73.947915
232,Putnam Ave & Throop Ave,0,20,40.6851532,-73.94111
233,Park Ave & Marcus Garvey Blvd,13,8,40.698617,-73.941342
234,Riverside Dr & W 78 St,33,41,40.78414472,-73.98362492
235,Driggs Ave & N 9 St,7,38,40.71816969454208,-73.95520135760307
236,40 Ave & Crescent St,6,15,40.753599202005596,-73.93795609474182
237,E 13 St & Avenue A,37,49,40.72966729392978,-73.98067966103554
238,Pleasant Ave & E 120 St,10,3,40.7974772,-73.9311847
239,1 Ave & E 110 St,16,8,40.7923272,-73.9383
240,E 115 St & Lexington Ave,18,4,40.797911,-73.9423
241,E 48 St & 3 Ave,10,65,40.7546011026,-73.971878855
242,31 St & Northern Blvd,13,22,40.75186951421875,-73.93349289894103
243,E 2 St & Avenue A,18,17,40.72307749068673,-73.98583620786667
244,21 St & 43 Ave,22,3,40.75052534,-73.94594845
245,Queens Plaza North & Crescent St,12,18,40.75110165,-73.94073717
246,48 Ave & 5 St,56,18,40.744363287066875,-73.9558732509613
247,Jackson Ave & 46 Rd,22,2,40.74524768,-73.94733276
248,44 Dr & Jackson Ave,14,16,40.74718234,-73.9432635
249,46 Ave & 5 St,39,0,40.74731,-73.95451
250,45 Rd & 11 St,17,3,40.74708586,-73.94977234
251,E 30 St & Park Ave S,8,48,40.74444921,-73.98303529
252,Steinway St & 23 Ave,3,12,40.7713937,-73.9077436
253,E 23 St & 1 Ave,10,12,40.736502,-73.97809472
254,Lenox Ave & W 130 St,17,7,40.8107922,-73.9430681
255,Court St & State St,10,21,40.6902375,-73.99203074
256,5 St & 6 Ave,9,12,40.6704836,-73.98208968
257,7 St & 5 Ave,20,3,40.6704922,-73.98541675
258,Barrow St & Hudson St,38,1,40.73172428,-74.00674436
259,Clinton St & Union St,13,24,40.6831164,-73.99785267
260,Cumberland St & Lafayette Ave,5,20,40.68753406,-73.97265183
261,Barclay St & Church St,16,18,40.71291224,-74.01020234
262,E 6 St & Avenue D,22,22,40.72228087,-73.97668709
263,Forsyth St & Canal St,21,4,40.7158155,-73.99422366
264,Pacific St & Nevins St,12,4,40.6853761,-73.98302136
265,Front St & Gold St,26,7,40.70224,-73.982578
266,Fulton St & Broadway,31,15,40.711066,-74.009447
267,Washington Ave & Park Ave,40,12,40.69610226,-73.96751037
268,Allen St & Stanton St,37,8,40.722055,-73.989111
269,Norfolk St & Broome St,39,11,40.7172274,-73.98802084
270,South St & Gouverneur Ln,41,0,40.70355377,-74.00670227
271,Marin Light Rail,7,20,40.71458403535893,-74.04281705617905
272,Communipaw & Berry Lane,5,6,40.71435836870427,-74.06661093235016
273,Columbus Drive,9,4,40.71835519823214,-74.03891444206238
274,Jersey & 3rd,1,13,40.72333158646436,-74.04595255851744
275,Manila & 1st,3,14,40.721650724879986,-74.04288411140442
276,Jersey & 6th St,6,7,40.72528910781132,-74.04557168483734
277,Monmouth and 6th,9,4,40.72568548362901,-74.04879033565521
278,Dixon Mills,7,11,40.721630142638354,-74.04996782541275
279,Sterling Pl & Bedford Ave,1,24,40.672695,-73.954131
280,W 15 St & 10 Ave,31,20,40.742753828659026,-74.00747358798981
281,Crescent St & 34 Ave,15,10,40.76108,-73.930562
282,Prospect Pl & Underhill Ave,5,17,40.6769694,-73.96579
283,34 Ave & 21 St,20,3,40.7628138,-73.9342862
284,2 Ave & 36 St,23,18,40.65708866668485,-74.00870203971863
285,35 St & 34 Ave,5,20,40.7580583,-73.9242751
286,34 Ave & 38 St,2,29,40.756913,-73.921631
287,Vernon Blvd & 10 St,37,2,40.7671863,-73.9373554
288,Washington Pl & 6 Ave,0,0,40.73224119,-74.00026394
289,Lafayette Ave & Classon Ave,17,8,40.68900443,-73.96023854
290,Douglass St & 4 Ave,42,5,40.6792788,-73.98154004
291,Broadway & W 37 St,12,41,40.75172632,-73.98753523
292,William St & Pine St,17,38,40.70717936,-74.00887308
293,Degraw St & Hoyt St,23,1,40.681990442707026,-73.99079024791718
294,2 Ave & E 96 St,35,8,40.7839636,-73.9471673
295,Centre St & Worth St,14,59,40.71494807,-74.00234482
296,Centre St & Chambers St,24,27,40.71273266,-74.0046073
297,W 26 St & 10 Ave,3,47,40.749717753,-74.002950346
298,6 Ave & 12 St,2,23,40.6663181,-73.9854617
299,1 Ave & E 94 St,32,6,40.7817212,-73.94594
300,Henry St & Degraw St,16,6,40.6847514,-73.99917254
301,10 St & 5 Ave,6,17,40.6686273,-73.98700053
302,14 St & 5 Ave,11,4,40.666287,-73.98895053
303,21 St & Queens Plaza North,30,4,40.75325964,-73.94335788
304,Vernon Blvd & 47 Rd,14,5,40.7449067,-73.9534573
305,30 Ave & 21 St,8,7,40.7703743,-73.9286078
306,Center Blvd & 48 Ave,15,7,40.745038,-73.957539
307,Crescent St & 30 Ave,4,16,40.768692,-73.9249574
308,Steinway St & 28 Ave,8,16,40.7656251,-73.9136695
309,28 Ave & 35 St,3,22,40.7671,-73.9169858
310,27 St & Hunter St,17,11,40.7485,-73.941275
311,Newtown Ave & 23 St,6,20,40.7713615,-73.9246145
312,DeKalb Ave & Franklin Ave,12,3,40.69064807082943,-73.95746178925037
313,Stagg St & Morgan Ave,23,0,40.710681,-73.93372
314,White St & Moore St,15,3,40.704508,-73.9351
315,Columbia St & Kane St,16,2,40.68763155,-74.0016256
316,DeKalb Ave & Vanderbilt Ave,7,9,40.68940747,-73.96885458
317,South St & Whitehall St,50,4,40.70122128,-74.01234218
318,MacDougal St & Washington Sq,21,4,40.73226398,-73.99852205
319,Amsterdam Ave & W 73 St,29,21,40.77966809007312,-73.98093044757842
320,Columbus Ave & W 72 St,23,37,40.7770575,-73.97898475
321,Mott St & Prince St,32,4,40.72317958,-73.99480012
322,Lispenard St & Broadway,17,56,40.71939226,-74.00247214
323,W 11 St & 6 Ave,21,24,40.73532427,-73.99800419
324,W 76 St & Columbus Ave,19,37,40.7801839724239,-73.97728532552719
325,5 Ave & 3 St,24,0,40.6728155,-73.98352355
326,E 82 St & East End Ave,7,19,40.7724607,-73.9468208
327,Carroll St & 5 Ave,15,9,40.6751622,-73.9814832
328,3 St & 7 Ave,1,25,40.6703837,-73.97839676
329,West End Ave & W 107 St,0,30,40.8021174,-73.9681805305
330,5 Ave & E 103 St,30,4,40.7922553,-73.95249933
331,E 102 St & Park Ave,32,0,40.7904828,-73.95033068
332,6 Ave & W 33 St,50,1,40.74901271,-73.98848395
333,Broadway & W 51 St,5,70,40.76228826,-73.98336183
334,FDR Drive & E 35 St,33,79,40.744219,-73.97121214
335,W 25 St & 6 Ave,14,33,40.74395411,-73.99144871
336,E 47 St & 2 Ave,31,66,40.75323098,-73.97032517
337,2 Ave & E 72 St,2,40,40.7687620293096,-73.95840793848038
338,W 104 St & Amsterdam Ave,30,15,40.799041392882984,-73.96649479866028
339,Grand St,7,9,40.71517767732029,-74.03768330812454
340,E 77 St & 3 Ave,9,36,40.77314236,-73.95856158
341,E 27 St & 1 Ave,1,83,40.739445,-73.976806
342,Frederick Douglass Blvd & W 129 St,25,0,40.8125511,-73.9492286
343,Crescent St & Ditmars Blvd,10,9,40.7787185,-73.9145645
344,St. Nicholas Ave & W 126 St,19,0,40.8114323,-73.9518776
345,Frederick Douglass Blvd & W 117 St,23,6,40.805159,-73.954692
346,W 116 St & Broadway,26,13,40.8082,-73.9641
347,W 116 St & Amsterdam Ave,9,23,40.8067581,-73.9607082
348,W 110 St & Amsterdam Ave,1,40,40.802692,-73.96295
349,Lenox Ave & W 111 St,17,13,40.7987859,-73.9523
350,Paulus Hook,6,8,40.7141454,-74.0335519
351,City Hall,15,5,40.7177325,-74.043845
352,Warren St,10,11,40.7211236,-74.03805095
353,Graham Ave & Withers St,9,8,40.7169811,-73.94485918
354,E 4 St & 2 Ave,64,12,40.7262807,-73.98978041
355,Carroll St & Washington Ave,2,24,40.6686744,-73.9618148
356,Lexington Ave & E 120 St,18,9,40.8013066,-73.9398167
357,Pacific St & Classon Ave,4,16,40.6791944,-73.9587903
358,Broadway & Moylan Pl,36,4,40.8143256,-73.9590255
359,Morningside Ave & W 123 St,29,2,40.81,-73.9551508
360,3 Ave & E 62 St,1,46,40.76312584,-73.96526895
361,Baldwin at Montgomery,0,13,40.7236589,-74.0641943
362,47 Ave & 31 St,12,10,40.743,-73.93561
363,5 Ave & E 72 St,21,0,40.77282817,-73.96685276
364,Bayard St & Baxter St,18,17,40.71602118,-73.99974372
365,Emerson Pl & Myrtle Ave,33,21,40.69363137,-73.96223558
366,S Portland Ave & Hanson Pl,8,14,40.68539567,-73.97431458
367,Clinton St & Grand St,46,19,40.71559509,-73.9870295
368,Christopher St & Greenwich St,63,9,40.73291553,-74.00711384
369,Columbia Heights & Cranberry St,33,1,40.70037867,-73.99548059
370,W 16 St & The High Line,30,27,40.74334935,-74.00681753
371,W 129 St & Convent Ave,19,4,40.814394437915816,-73.95324736833572
372,George St & Wilson Ave,14,4,40.702997,-73.92997
373,Cambridge Pl & Gates Ave,4,13,40.68488,-73.96304
374,W 106 St & Central Park West,36,20,40.7981856,-73.9605909006
375,Clinton St & Centre St,15,5,40.67434,-74.00194698
376,3 Ave & E 100 St,24,2,40.7877214,-73.94728331
377,Kingston Ave & Herkimer St,5,16,40.67890679,-73.94142771
378,Degraw St & Smith St,10,17,40.6829151,-73.99318208
379,Lewis Ave & Decatur St,6,13,40.6814598,-73.934903
380,Fulton St & Utica Ave,6,11,40.6794268,-73.9298911
381,Albany Ave & Fulton St,24,0,40.6800105,-73.938475
382,Halsey St & Tompkins Ave,7,6,40.6823687,-73.944118
383,Monroe St & Classon Ave,3,14,40.6845683,-73.95881081
384,Adam Clayton Powell Blvd & W 118 St,20,2,40.804372,-73.951475
385,Broadway & E 14 St,34,72,40.73454567,-73.99074142
386,Willoughby Ave & Wyckoff Ave,7,14,40.705614,-73.92153
387,Cedar St & Myrtle Ave,8,19,40.697842,-73.926241
388,3 Ave & Carroll St,16,1,40.677027,-73.9865
389,Wyckoff Av & Jefferson St,10,15,40.707165,-73.923711
390,Bushwick Ave & McKibbin St,3,17,40.705517,-73.93936
391,Bushwick Ave & Stagg St,6,13,40.709897,-73.94008
392,White St & Johnson Ave,19,3,40.707174,-73.93581
393,Montgomery St,12,2,40.71942,-74.05099
394,E 75 St & 3 Ave,20,17,40.77112927,-73.95772297
395,Washington Park,5,10,40.6917823,-73.9737299
396,Johnson St & Gold St,14,22,40.69474881,-73.98362464
397,Broad St & Bridge St,48,0,40.70365182,-74.01167797
398,Broadway & W 36 St,44,29,40.75097711,-73.98765428
399,Stanton St & Chrystie St,36,9,40.72229346,-73.99147535
400,35 Ave & 10 St,23,1,40.76315481910373,-73.93985509872437
401,Broadway & W 25 St,23,80,40.74286877312112,-73.98918628692627
402,Journal Square,9,7,40.73367,-74.0625
403,1 Ave & E 30 St,15,20,40.74144387,-73.97536082
404,S 5 Pl & S 5 St,15,17,40.710451,-73.960876
405,Forsyth St & Broome St,48,14,40.71893904,-73.99266288
406,11 Ave & W 59 St,2,17,40.77149671054441,-73.99046033620834
407,34 St & 35 Ave,6,13,40.7569332,-73.9262231
408,Metropolitan Ave & Bedford Ave,30,20,40.71534825,-73.96024116
409,Riverside Dr & W 72 St,30,9,40.78057799010334,-73.98562431335449
410,21 St & 38 Ave,16,2,40.7576314,-73.9391224
411,Clermont Ave & Lafayette Ave,30,15,40.68764484,-73.96968902
412,W 59 St & 10 Ave,21,90,40.770513,-73.988038
413,Bus Slip & State St,64,1,40.701907,-74.013942
414,West St & Chambers St,106,5,40.71754834,-74.01322069
415,St James Pl & Oliver St,40,7,40.71307916,-73.99851193
416,W 70 St & Amsterdam Ave,24,15,40.77748046,-73.98288594
417,E 2 St & Avenue B,65,15,40.72217444,-73.98368779
418,Avenue D & E 3 St,15,39,40.72082834,-73.97793172
419,Mercer St & Spring St,42,21,40.72362738,-73.99949601
420,Canal St & Rutgers St,27,17,40.71427487,-73.98990025
421,Cooper Square & Astor Pl,55,30,40.72951496224949,-73.99075269699097
422,Morris Canal,3,10,40.7124188237569,-74.03852552175522
423,Brunswick & 6th,7,6,40.72601172964625,-74.05038893222809
424,Lafayette Park,9,4,40.71346382669195,-74.06285852193832
425,Lenox Ave & W 115 St,25,3,40.8011939,-73.9500739
426,E 16 St & Irving Pl,18,54,40.735367055605394,-73.98797392845154
427,Murray St & Greenwich St,6,42,40.714851505262516,-74.01122331619263
428,E 115 St & Madison Ave,25,5,40.7989445,-73.944846
429,E 118 St & Madison Ave,20,6,40.8014866,-73.9442507
430,Lexington Ave & E 111 St,24,2,40.7954121,-73.9441232
431,Madison Ave & E 120 St,24,5,40.80295,-73.942954
432,E 123 St & Lexington Ave,7,20,40.8029263,-73.9379
433,Lexington Ave & E 127 St,17,15,40.805726,-73.936322
434,Park Ave & E 124 St,23,11,40.8045555,-73.9396861
435,Broadway & 12 St,23,4,40.7668,-73.9347774
436,W 100 St & Broadway,25,11,40.7973721,-73.97041192
437,Adam Clayton Powell Blvd & W 123 St,28,1,40.8078316,-73.949373
438,Sigourney St & Columbia St,18,0,40.67267243410948,-74.0087952464819
439,Pershing Field,4,13,40.742677141,-74.051788633
440,Newark Ave,14,6,40.72152515,-74.046304543
441,Christ Hospital,0,22,40.734785818,-74.050443636
442,Van Vorst Park,17,4,40.71848892,-74.047726625
443,Garfield Pl & 8 Ave,3,22,40.6711978,-73.97484126
444,Franklin St & W Broadway,13,10,40.71911552,-74.00666661
445,31 Ave & 34 St,7,14,40.763154,-73.920827
446,31 Ave & 14 St,17,0,40.7682,-73.9322662
447,49 Ave & 21 St,15,5,40.74252,-73.948852
448,31 Ave & Crescent St,12,8,40.7658346,-73.9265474
449,Vernon Blvd & 31 Ave,16,5,40.7692475,-73.9354504
450,5 St & 51 Ave,12,7,40.7423737,-73.9566
451,McKibbin St & Manhattan Ave,4,18,40.70510918,-73.94407279
452,Boerum St & Broadway,8,8,40.70538077,-73.94976519
453,Leonard St & Boerum St,8,15,40.70583339,-73.94644578
454,Greene Av & Myrtle Av,24,4,40.698568,-73.918877
455,Montrose Ave & Bushwick Ave,7,34,40.70767788,-73.94016171
456,Division Ave & Marcy Ave,10,21,40.70708701,-73.95796783
457,Scholes St & Manhattan Ave,22,10,40.70870368,-73.9448625
458,Stagg St & Union Ave,1,27,40.70877084,-73.95095259
459,Broadway & Roebling St,4,17,40.70924826276157,-73.96063148975372
460,W 84 St & Columbus Ave,7,24,40.78499979,-73.97283406
461,Riverside Blvd & W 67 St,8,0,40.777507027547976,-73.98888587951659
462,W 20 St & 8 Ave,15,64,40.74345335,-74.00004031
463,Carroll St & Bond St,15,9,40.6786115,-73.99037292
464,E 65 St & 2 Ave,16,12,40.76471851944339,-73.96222069859505
465,Central Park North & Adam Clayton Powell Blvd,18,13,40.799484,-73.955613
466,3 St & 3 Ave,75,3,40.6750705,-73.98775226
467,Grand Ave & Bergen St,14,5,40.678045,-73.962408
468,Cleveland Pl & Spring St,30,1,40.722103786686034,-73.99724900722504
469,E 2 St & Avenue C,37,46,40.7208736,-73.98085795
470,Fulton St & Irving Pl,3,28,40.68186,-73.959432
471,Henry St & Atlantic Ave,20,0,40.69089272,-73.99612349
472,E 97 St & 3 Ave,19,9,40.7859201,-73.94860294
473,10 St & 7 Ave,5,10,40.6662078,-73.98199886
474,Stanton St & Norfolk St,15,26,40.720747,-73.986274
475,6 Ave & 9 St,6,17,40.668127,-73.98377641
476,Nassau Ave & Russell St,33,14,40.72557,-73.94434
477,Banker St & Meserole Ave,30,0,40.72606,-73.95621
478,Rivington St & Chrystie St,23,35,40.72110063,-73.9919254
479,N 15 St & Wythe Ave,52,0,40.724055,-73.955736
480,McGinley Square,7,15,40.7253399253558,-74.06762212514877
481,Liberty Light Rail,14,8,40.7112423,-74.0557013
482,Union St,15,3,40.7182113,-74.0836394
483,10 Ave & W 28 St,16,46,40.75066386,-74.00176802
484,W 15 St & 7 Ave,26,51,40.73935542,-73.99931783
485,S 3 St & Bedford Ave,8,10,40.71260486,-73.96264403
486,Brooklyn Bridge Park - Pier 2,24,0,40.698458,-73.997178
487,Hanson Pl & Ashland Pl,11,24,40.68506807308177,-73.97790759801863
488,Dock 72 Way & Market St,8,14,40.69985,-73.97141
489,Columbia St & Degraw St,18,1,40.6859296,-74.00242364
490,Douglass St & 3 Ave,24,7,40.6802133,-73.98432695
491,2 Ave & E 104 St,22,9,40.7892105,-73.94370784
492,E 106 St & Lexington Ave,19,8,40.791976,-73.945993
493,Wythe Ave & Metropolitan Ave,33,14,40.716887,-73.963198
494,Central Park S & 6 Ave,26,40,40.76590936,-73.97634151
495,W 41 St & 8 Ave,41,24,40.75640548,-73.9900262
496,Pierrepont St & Monroe Pl,5,17,40.69535693320225,-73.99344027042389
497,Catherine St & Monroe St,27,5,40.71117444,-73.99682619
498,Newport Pkwy,6,4,40.7287448,-74.0321082
499,Heights Elevator,1,16,40.748715945380226,-74.04044330120087
500,India St & Manhattan Ave,29,20,40.73232194,-73.9550858
501,Amsterdam Ave & W 125 St,32,0,40.813358,-73.956461
502,Bedford Ave & Montgomery St,3,23,40.665816,-73.956934
503,9 Ave & W 22 St,3,49,40.7454973,-74.00197139
504,43 St & Broadway,1,22,40.7577284,-73.9166368
505,Lafayette St & Jersey St,52,4,40.72456089,-73.99565293
506,E 12 St & 3 Ave,0,0,40.73223272,-73.98889957
507,Clinton Ave & Myrtle Ave,10,19,40.693261,-73.968896
508,27 Ave & 9 St,7,29,40.7739825,-73.9309134
509,E 53 St & Madison Ave,13,35,40.7597108,-73.97402311
510,27 Ave & 3 St,13,6,40.77485,-73.9342
511,E 95 St & 3 Ave,16,12,40.7849032,-73.950503
512,University Pl & E 14 St,52,0,40.734814,-73.992085
513,W 35 St & Dyer Ave,4,33,40.754691750226016,-73.99740189313889
514,Adam Clayton Powell Blvd & W 126 St,21,7,40.809495347779475,-73.94776493310928
515,Carroll St & 6 Ave,4,16,40.6740886,-73.9787282
516,W 107 St & Columbus Ave,9,13,40.7997568,-73.9621128676
517,Bushwick Ave & Dekalb Ave,11,13,40.69502,-73.92825
518,Beaver St & Fayette St,2,25,40.70099,-73.93921
519,Bushwick Ave & Forrest St,4,16,40.70076,-73.93641
520,Evergreen Ave & Noll St,6,18,40.70106,-73.93318
521,Kent St & McGuinness Blvd,19,1,40.73124,-73.95161
522,Morgan Ave & Maspeth Ave,16,9,40.716657,-73.93637
523,Metropolitan Ave & Vandervoort Ave,15,9,40.71429,-73.93323
524,Calyer St & Jewel St,35,2,40.72984,-73.94839
525,Withers St & Kingsland Ave,4,13,40.71773,-73.94051
526,Harrison Pl & Porter Ave,20,0,40.70686,-73.92851
527,Engert Ave & McGuinness Blvd,6,12,40.72158,-73.94546
528,Jefferson St & Cypress Ave,21,3,40.70907,-73.92157
529,2 Ave & E 122 St,10,3,40.8006721,-73.9349
530,Frost St & Debevoise Ave,3,19,40.71882,-73.93948
531,Myrtle Ave & Linden St,4,19,40.69943,-73.91337
532,Myrtle Ave & Grove St,1,20,40.69905,-73.91516
533,Putnam Ave & Wyckoff Ave,3,20,40.69811,-73.90904
534,West Drive & Prospect Park West,25,0,40.6610633719006,-73.97945255041122
535,Putnam Ave & Knickerbocker Ave,9,17,40.69545,-73.91164
536,Wilson Ave & Troutman St,10,16,40.70166,-73.92754
537,Stewart Ave & Johnson Ave,3,13,40.70869,-73.92587
538,Suydam St & Broadway,11,20,40.69544,-73.93223
539,Wyckoff Av & Stanhope St,6,15,40.703545,-73.917775
540,Metropolitan Ave & Stewart Ave,5,15,40.71401,-73.92793
541,Cedar St & Evergreen Ave,20,5,40.69671,-73.92807
542,Irving Ave & Harman St,10,8,40.70108,-73.9179
543,Menahan St & Wyckoff Ave,4,14,40.70113,-73.91422
544,E 51 St & 2 Ave,5,32,40.755293,-73.967641
545,Dey St,10,8,40.737711,-74.066921
546,Linden St & Knickerbocker Ave,4,11,40.69714,-73.91566
547,Menahan St & Central Ave,12,9,40.69543,-73.9196
548,Central Ave & Himrod St,4,19,40.69676,-73.92302
549,Kingsland Ave & Nassau Ave,11,12,40.72577,-73.94173
550,Irving Ave & Palmetto St,5,12,40.698,-73.9127
551,Bushwick Ave & Harman St,12,11,40.69356,-73.92524
552,Broadway & Kosciuszko St,4,21,40.69329,-73.92852
553,E 116 St & 2 Ave,21,6,40.796879,-73.937261
554,E 85 St & 3 Ave,4,24,40.77801203,-73.95407149
555,Irving Ave & Halsey St,8,10,40.69467,-73.90663
556,Central Ave & Woodbine St,4,12,40.69296,-73.91605
557,Bushwick Ave & Linden St,7,22,40.69146,-73.92146
558,Central Ave & Covert St,1,27,40.68929,-73.90951
559,Central Ave & Decatur St,1,24,40.6882,-73.90798
560,Moffat St & Bushwick,6,11,40.68458,-73.90925
561,Eldert St & Bushwick Ave,4,17,40.68652,-73.91321
562,Halsey St & Broadway,8,11,40.68565,-73.91564
563,Grove St & Broadway,16,11,40.69047,-73.923511
564,E 89 St & 3 Ave,15,22,40.7806284,-73.9521667
565,E 89 St & York Ave,15,19,40.7779453,-73.946041
566,Knickerbocker Ave & Halsey St,5,13,40.693,-73.90824
567,Madison St & Evergreen Ave,4,11,40.69122,-73.91693
568,Halsey St & Evergreen Ave,10,8,40.68858,-73.91227
569,Broadway & Madison St,5,16,40.68822,-73.91966
570,W 15 St & 6 Ave,11,61,40.738046142482766,-73.99642959237099
571,Cliff St & Fulton St,27,31,40.70838,-74.00495
572,Wilson Ave & Moffat St,5,25,40.68906,-73.90506
573,Bushwick Ave & Furman Ave,3,26,40.68281,-73.90623
574,E 56 St & Madison Ave,4,26,40.761573,-73.972628
575,Henry St & Grand St,10,22,40.714211,-73.981095
576,Van Sinderen Ave & Truxton St,17,3,40.6786,-73.90369
577,Somers St & Broadway,11,17,40.67945,-73.90474
578,Broadway & Furman Ave,10,19,40.68139,-73.90756
579,Rockaway Ave & Bainbridge St,13,10,40.68319988172761,-73.91166642308235
580,Center Blvd & 51 Ave,11,6,40.743366080270214,-73.95960688591003
581,Cypress Ave & George St,1,18,40.69812,-73.90271
582,Norman St & Wyckoff Ave,0,11,40.69517,-73.90311
583,Forest Ave & Summerfield St,15,6,40.69922,-73.89795
584,Menahan St & Seneca Ave,5,8,40.70461,-73.91054
585,Cypress Ave & Palmetto St,0,24,40.701573408737914,-73.90876293182373
586,38 Ave & 29 St,4,13,40.75473,-73.93367
587,Manhattan Av & Leonard St,14,1,40.72084,-73.94844
588,Morgan Ave & Lombardy St,13,16,40.72226,-73.93889
589,Madison St & Cypress Ave,3,14,40.70068,-73.90742
590,E 81 St & Park Ave,9,37,40.77677702,-73.9590097
591,Stephen St & Seneca Ave,6,7,40.6988,-73.9007
592,Madison St & Seneca Ave,0,21,40.70183,-73.90625
593,Menahan St & Onderdonk Ave,14,5,40.70553,-73.9096
594,E 88 St & Park Ave,8,27,40.781410700190015,-73.95595908164978
595,Stanhope St & Fairview Ave,5,10,40.70998,-73.91116
596,Flushing Ave & Woodward Ave,9,11,40.71246,-73.91873
597,Willoughby Ave & Onderdonk Ave,14,13,40.7098,-73.91727
598,Hancock St & Wyckoff Ave,10,6,40.6972,-73.90674
599,Broadway & Hancock St,3,31,40.68663,-73.9168
600,Madison St & Forest Ave,9,15,40.70555,-73.90245
601,Woodward Ave & Harman St,2,14,40.70793,-73.91092
602,Central Ave & Melrose St,1,13,40.70112,-73.93039
603,W 47 St & 10 Ave,0,38,40.76269882,-73.99301222
604,Adam Clayton Powell Blvd & W 115 St,13,8,40.802535,-73.9532423
605,Madison St & Woodward Ave,4,16,40.70408,-73.90408
606,Fairview Ave & Linden St,7,12,40.70694,-73.90632
607,Greene Ave & Grandview Ave,3,14,40.709697,-73.907856
608,Onderdonk Ave & Dekalb Ave,1,14,40.70863,-73.91497
609,W 42 St & 6 Ave,20,24,40.75492,-73.98455
610,W Broadway & W Houston St,25,25,40.726378,-74.000472
611,Centre St & Seneca Ave,10,12,40.69969,-73.9022
612,W 53 St & 10 Ave,3,26,40.76669671,-73.99061728
613,W 54 St & 9 Ave,4,38,40.76584941,-73.98690506
614,4 Ave & E 12 St,36,0,40.732647,-73.99011
615,Delancey St & Eldridge St,22,9,40.719383,-73.991479
616,Division St & Bowery,32,10,40.714193,-73.996732
617,S 4 St & Wythe Ave,19,3,40.71285887,-73.96590294
618,Willoughby St & Ashland Pl,20,9,40.69178,-73.97877
619,Sands St Gate,16,2,40.699569,-73.979827
620,12 Ave & W 125 St,28,0,40.818299,-73.960405
621,Columbia St & Rivington St,32,7,40.71739973,-73.98016555
622,31 Ave & Steinway St,4,21,40.7611488,-73.9170071
623,24 St & 41 Ave,7,7,40.752474,-73.939991
624,W 30 St & 10 Ave,36,18,40.752694,-74.002353
625,Hoyt St & Warren St,34,1,40.6843549,-73.98901629
626,5 Ave & E 63 St,17,31,40.766368,-73.971518
627,Nassau St & Navy St,46,11,40.69839895,-73.98068914
628,West St & Liberty St,33,5,40.711444,-74.014847
629,E 128 St & 3 Ave,10,9,40.805631,-73.934077
630,2 Ave & E 125 St,25,3,40.802554,-73.933509
631,E 149 St & Morris Ave,23,12,40.81734,-73.922962
632,Lincoln Ave & E 134 St,14,3,40.808484,-73.928803
633,Willis Ave & Bruckner Blvd,4,11,40.805701,-73.925177
634,W 135 St & Lenox Terrace Pl,23,3,40.813619,-73.939336
635,5 Ave & E 135 St,8,9,40.812191,-73.937838
636,Lexington Ave & E 128 St,17,6,40.806414,-73.936085
637,Lincoln Ave & E 138 St,7,17,40.810893,-73.927311
638,E 132 St & Madison Ave,3,14,40.810224,-73.937195
639,5 Ave & W 131 St,4,15,40.81014,-73.93973
640,Adam Clayton Powell Blvd & W 130 St,21,0,40.812346,-73.946168
641,Morris Ave & E 142 St,12,10,40.814469,-73.924963
642,Amsterdam Ave & W 131 St,16,2,40.816355,-73.954295
643,Willis Ave & E 141 St,14,2,40.81093,-73.921606
644,Willis Ave & E 137 St,5,14,40.808384,-73.923604
645,E 53 St & Lexington Ave,8,48,40.75828065,-73.97069431
646,E 138 St & 5 Av,18,4,40.81449,-73.936153
647,Convent Ave & W 135 St,8,20,40.818215,-73.950988
648,Amsterdam Ave & W 136 St,13,5,40.819746,-73.951819
649,E 135 St & St Ann's Ave,20,1,40.805089,-73.918889
650,St. Ann's Av & Bruckner Blvd,11,3,40.803399,-73.919763
651,St Nicholas Ave & W 137 St,6,13,40.818477,-73.947568
652,E 134 St & Walnut Ave,13,1,40.800425,-73.911034
653,Willow Ave & E 133 St,19,0,40.800933,-73.913863
654,E 138 St & Grand Concourse,18,2,40.813224,-73.930605
655,E 138 St & Willow Ave,8,10,40.804168,-73.911545
656,Brook Ave & E 141 St,14,3,40.809619,-73.917875
657,Morris Ave & E 153 St,17,1,40.820036,-73.921411
658,Willis Ave & E 143 St,15,6,40.812299,-73.92037
659,Walnut Ave & E 136 St,16,0,40.801657,-73.909513
660,St Mary's St & Jackson Ave,5,9,40.808891,-73.91081
661,St. Ann's Ave & E 144 St,18,5,40.811112,-73.914932
662,E 144 St & Brook Ave,13,5,40.811675,-73.917037
663,Bradhurst Ave & W 148 St,16,3,40.825125,-73.941616
664,Lenox Ave & W 144 St,19,0,40.819783,-73.936521
665,Riverside Dr & W 138 St,13,13,40.823168,-73.955857
666,W 146 St & Broadway,21,6,40.826969,-73.949738
667,W 145 St & Amsterdam Ave,4,13,40.825244,-73.947257
668,Riverside Dr & W 145 St,11,20,40.827305,-73.951989
669,Melrose Ave & E 150 St,19,10,40.816827,-73.917338
670,E 149 St & Jackson Ave,11,11,40.813135,-73.909235
671,E 149 St & Eagle Ave,13,4,40.814046,-73.91186
672,Greenpoint Ave & Manhattan Ave,11,11,40.73026,-73.95394
673,Lexington Ave & E 29 St,9,43,40.74311555376486,-73.98215353488922
674,Lexington Ave & E 26 St,33,44,40.741459,-73.983293
675,St Nicholas Ave & W 134 St,16,7,40.816234,-73.948222
676,5 Av & W 139 St,10,7,40.815484,-73.935856
677,W 133 St & 12 Ave,14,1,40.820003,-73.959089
678,E 142 St & 3 Ave,3,12,40.812735,-73.923697
679,E 138 St & Cypress Ave,4,19,40.805559,-73.914718
680,LaGuardia Pl & W 3 St,50,1,40.72917025,-73.99810231
681,W Broadway & Spring St,40,23,40.72494672359416,-74.00165855884552
682,Marcus Garvey Blvd & Macon St,3,15,40.682601,-73.938037
683,Lenox Ave & W 133 St,15,6,40.81296,-73.941878
684,Adam Clayton Powell Blvd & W 132 St,17,3,40.813539,-73.94521
685,Brook Ave & E 138 St,10,8,40.807408,-73.91924
686,E 141 St & St Ann's Ave,9,6,40.808633,-73.916124
687,E 141 St & Jackson Ave,5,10,40.806896,-73.911837
688,Edgecombe Ave & W 141 St,14,6,40.820681,-73.945144
689,St. Nicholas Terrace & Convent Ave,2,22,40.821294,-73.947868
690,E 147 St & Bergen Ave,12,11,40.814673,-73.91839
691,Willoughby Ave & Myrtle Ave,0,17,40.69757,-73.93098
692,Motorgate,23,11,40.7639089,-73.9477213
693,Roosevelt Island Tramway,26,14,40.757284,-73.9536
694,Southpoint Park,26,8,40.75370225419114,-73.95865201950072
695,W 148 St & Amsterdam Ave,3,15,40.827075,-73.945909
696,Edgecombe Ave & W 145 St,3,25,40.823498,-73.94386
697,Westchester Ave & Jackson Ave,8,14,40.816124,-73.908116
698,Prospect Ave & E 151 St,18,2,40.814232,-73.903927
699,Wales Ave & E 147 St,10,7,40.811314,-73.907729
700,1 Ave & E 18 St,11,38,40.733812191966315,-73.98054420948029
701,1 Ave & E 16 St,12,39,40.73221853,-73.98165557
702,W 147 St & Adam Clayton Powell Blvd,19,3,40.82281,-73.937413
703,Broadway & W 131 St,18,2,40.817555,-73.957163
704,St Ann's Ave & Westchester Ave,13,3,40.815887,-73.911918
705,West End Ave & W 60 St,1,39,40.77237,-73.99005
706,Southern Blvd & E 142 St,9,13,40.807347437082,-73.90809774398804
707,Adam Clayton Powell Blvd & W 138 St,10,10,40.81695971032464,-73.9422959089279
708,Broadway & W 133 St,9,9,40.8190344,-73.956156
709,Madison Av & E 51 St,19,22,40.75863,-73.97513
710,Adam Clayton Powell Blvd & W 151 St,9,7,40.825289,-73.936232
711,Lenox Ave & W 146 St,19,4,40.821111,-73.935971
712,W 140 St & Riverside Dr,3,20,40.824013,-73.954743
713,Brook Ave & E 148 St,16,3,40.814383,-73.915368
714,Broadway & W 153 St,2,18,40.831327,-73.946665
715,Riverside Dr & W 148 St,8,14,40.829114,-73.950426
716,Edgecombe Ave & W 150 St,5,13,40.826881,-73.941427
717,E 155 St & Courtlandt Ave,14,1,40.82057,-73.917579
718,Melrose Ave & E 154 St,10,8,40.819609,-73.916071
719,St Nicholas Ave & W 150 St,3,20,40.827212,-73.942722
720,Gerard Ave & E 146 St,17,1,40.817755,-73.92965
721,Alexander Ave & E 134 St,0,16,40.807466,-73.927107
722,Amsterdam Ave & W 152 St,6,9,40.829523,-73.944279
723,Cauldwell Ave & E 161 St,4,12,40.82188,-73.907521
724,E 156 & Brook Ave,15,2,40.819823,-73.912411
725,Brook Ave & E 157 St,13,7,40.820713,-73.911759
726,Harlem River Dr & W 155 St,2,19,40.830476,-73.939929
727,Willoughby Ave & Tompkins Ave,7,10,40.69425403,-73.94626915
728,Prospect Ave & Longwood Ave,16,12,40.81899,-73.90202
729,Convent Ave & W 151 St,3,20,40.82831,-73.942924
730,Riverside Dr & W 91 St,34,21,40.79313480986663,-73.97700369358063
731,St. Nicholas Ave & W 157 St,2,18,40.832314,-73.94102
732,W 155 St & Frederick Douglass Blvd,31,0,40.82923,-73.936996
733,Westchester Ave & E 156 St,7,9,40.817802,-73.905203
734,Amsterdam Ave & W 162 St,16,11,40.83618,-73.939789
735,W 160 St & St. Nicholas Ave,9,12,40.834468,-73.939865
736,W 163 St & Riverside Dr,6,11,40.839278,-73.945446
737,E 160 St & Tinton Ave,16,3,40.820302,-73.903944
738,W 165 St & Fort Washington Ave,7,16,40.84004,-73.942939
739,Broadway & W 165 St,3,18,40.839137,-73.941409
740,Fort Washington Ave & W 173 St,12,9,40.84522,-73.940493
741,Amsterdam Ave & W 172 St,8,15,40.842173,-73.935111
742,Frederick Douglass Blvd & Harlem River Dr,13,4,40.830702,-73.936371
743,Broadway & W 160 St,8,14,40.835775,-73.9434
744,Central Park West & W 85 St,12,17,40.78476,-73.969862
745,Amsterdam Ave & W 156 St,21,5,40.832081,-73.942386
746,Adam Clayton Powell Blvd & W 141 St,16,4,40.819241,-73.941057
747,Amsterdam Ave & W 167 St,12,10,40.839443,-73.937044
748,Amsterdam Ave & W 175 St,11,10,40.844044,-73.933651
749,Wadsworth Ave & W 175 St,10,13,40.846052,-73.937648
750,Cabrini Blvd & W 177 St,1,18,40.848282,-73.941343
751,Amsterdam Ave & W 180 St,10,10,40.847396,-73.931205
752,Audobon Ave & W 179 St,11,8,40.847305,-73.933291
753,Wadsworth Ave & W 179 St,18,16,40.848467,-73.936064
754,Old Broadway & W 133 St,11,7,40.818212,-73.955277
755,St. Nicholas Ave & W 155 St,11,11,40.830663,-73.941323
756,Clermont Ave & Park Ave,7,11,40.69573398,-73.97129668
757,Central Park W & W 91 St,31,12,40.788664991278836,-73.96680057048798
758,Amsterdam Ave & W 183 St,3,15,40.84925,-73.93022
759,Gerard Ave & McClellan St,25,3,40.833909,-73.92112
760,Gerard Ave & E 165 St,5,15,40.83173,-73.922394
761,Grand Concourse & E 167 St,5,22,40.834263,-73.917641
762,Gerard Ave & E 164 St,9,10,40.830262,-73.923391
763,Ogden Ave & W 165 St,3,16,40.834457,-73.928381
764,Shakespeare Ave & W 169 St,3,14,40.839312,-73.922423
765,Avenue D & E 10 St,16,11,40.72506551015475,-73.97515833377838
766,E 169 St & Webster Ave,18,3,40.834015,-73.908863
767,Grand Concourse & E 171 St,13,11,40.839549,-73.913004
768,Inwood Ave & W 170 St,19,2,40.840536,-73.919228
769,E 158 St & Melrose Ave,21,1,40.822215,-73.914688
770,Prospect Pl & 6 Ave,5,17,40.6793307,-73.97519523
771,Grand Concourse & E 156 St,6,15,40.823429,-73.924689
772,W 87 St & Amsterdam Ave,33,7,40.78839,-73.9747
773,W 87 St & West End Ave,32,12,40.789622,-73.97757
774,Jerome Ave & Anderson Ave,17,2,40.830179,-73.928747
775,Grand Concourse & E 164 St,5,12,40.829608,-73.921461
776,Morris Ave & McClellan St,17,3,40.831584,-73.9149
777,Walton Ave & E 168 St,7,11,40.83649,-73.918316
778,W 159 St & Edgecombe Ave,5,15,40.833303,-73.939326
779,40 Ave & 9 St,11,6,40.75742,-73.945133
780,Park Ave & E 162 St,2,17,40.825716,-73.915585
781,Ogden Ave & Merriam Ave,11,8,40.839142,-73.925961
782,College Ave & E 170 St,4,15,40.837576,-73.910489
783,Clay Ave & E 173 St,16,1,40.843264,-73.904867
784,E 39 St & Lexington Ave,24,33,40.749498546025194,-73.97729203113158
785,28 Ave & 44 St,10,5,40.76408932350688,-73.91065120697021
786,Southern Blvd & Avenue St. John,10,7,40.812769,-73.901583
787,Beck St & Leggett Ave,15,5,40.815077,-73.899939
788,Jerome Ave & Ogden Ave,11,8,40.829797,-73.931015
789,Longwood Ave & Southern Blvd,17,5,40.816343,-73.896447
790,Westchester Ave & Longwood Ave,0,23,40.819701,-73.901311
791,Southern Blvd & Tiffany St,18,0,40.818185,-73.894143
792,Greenwich St & Hubert St,14,19,40.721319,-74.010065
793,E 163 St & Tiffany St,6,9,40.821075,-73.895069
794,River Ave & E 153 St,24,0,40.82441,-73.92818
795,Hicks St & Montague St,10,4,40.69512845,-73.99595065
796,Concourse Village West & E 156 St,8,10,40.823162,-73.923267
797,Intervale Ave & Westchester Ave,9,16,40.821967,-73.896752
798,Faile St & Garrison Ave,15,3,40.820578,-73.888271
799,Grand Concourse & East Mount Eden Ave,7,11,40.84301,-73.91172
800,Broadway & W 155 St,6,24,40.83299,-73.94592
801,E 169 St & Fox St,9,9,40.827184,-73.893721
802,Tinton Ave & E 165 St,13,5,40.824796,-73.90242
803,Southern Blvd & E 172 St,6,12,40.834124,-73.88955
804,W 181 St & Riverside Dr,9,10,40.85168,-73.94186
805,Park Ave & St Edwards St,48,4,40.69608941,-73.97803415
806,Anderson Ave & W 164 St,2,16,40.832057,-73.927421
807,Concourse Village East & E 158 St,22,8,40.823732,-73.919379
808,McGuinness Blvd & Eagle St,26,13,40.73555,-73.95284
809,River Ave & McClellan St,10,5,40.83406,-73.92243
810,Fulton Ave & St. Paul's Pl,1,17,40.83545,-73.90153
811,3 Ave & Franklin Ave,8,10,40.82696,-73.907451
812,Hamilton Pl & W 140 St,11,8,40.822756,-73.951346
813,3 Ave & E 170 St,12,5,40.834857,-73.903743
814,W 20 St & 10 Ave,42,4,40.745686,-74.005141
815,Fulton Ave & E 168 St,10,11,40.830471,-73.904556
816,E 157 St & River Ave,16,2,40.825737,-73.927311
817,Wolcott St & Dwight St,20,0,40.6753274,-74.0100698
818,N 12 St & Bedford Ave,27,19,40.72079821,-73.95484712
819,Carroll St & Smith St,24,14,40.680611,-73.99475825
820,Morris Ave & E 171 St,7,13,40.83899,-73.9109
821,Graham Ave & Conselyea St,12,15,40.715143,-73.944507
822,Clay Ave & Claremont Pkwy,17,2,40.83999,-73.90549
823,Grand St & Havemeyer St,14,9,40.71286844,-73.95698119
824,Dawson St & Intervale Ave,6,10,40.819999,-73.897263
825,3 Ave & E 174 St,13,19,40.84224,-73.8985
826,3 Ave & E 172 St,7,11,40.839586,-73.900277
827,Intervale Ave & Kelly St,7,12,40.827301,-73.896372
828,12 St & 4 Ave,4,20,40.668603,-73.9904394
829,Berkeley Pl & 7 Ave,2,25,40.675146838709786,-73.97523209452629
830,E 167 St & Franklin Ave,2,15,40.82895,-73.90521
831,E 163 St & Union Ave,7,15,40.822545,-73.901824
832,Plaza Dr & W 170 St,13,16,40.840484,-73.917946
833,E 25 St & 2 Ave,6,69,40.73912601,-73.97973776
834,E 171 St & Webster Ave,18,1,40.838379,-73.905838
835,Walton Ave & E 171 St,6,12,40.840683,-73.915073
836,9 St & 44 Rd,18,15,40.74966,-73.9521
837,Sherman Ave & E 166 St,7,11,40.83130549267296,-73.91744792461395
838,Jerome Ave & E 164 St,14,3,40.831444,-73.926226
839,Wards Meadow Comfort Station,5,5,40.78294,-73.93077
840,Icahn Stadium,15,5,40.79346,-73.92389
841,Bronx Shore Comfort Station,11,11,40.80046,-73.92404
842,Sunken Meadow Comfort Station,14,8,40.79558,-73.91906
843,E 153 St & E 157 St,12,3,40.826677,-73.929327
844,Boston Rd & E 167 St,13,8,40.828199,-73.903719
845,E 165 St & Clay Ave,19,0,40.82809,-73.91288
846,Onderdonk Ave & Gates Ave,6,10,40.70413,-73.90737
847,Wilkins Ave & Crotona Park E,14,1,40.835302,-73.895133
848,E 149 St & Park Ave,22,3,40.818154,-73.925294
849,Grand Concourse & E 166 St,2,18,40.83196,-73.91956
850,Prospect Ave & Jennings St,10,10,40.831762,-73.896853
851,Louis Nine Blvd & Intervale Ave,10,9,40.831998,-73.892686
852,E 20 St & 2 Ave,28,56,40.73587678,-73.98205027
853,W 18 St & 6 Ave,28,38,40.73971301,-73.99456405
854,Harman St & Seneca Ave,6,11,40.70577,-73.91292
855,E 161 St & Park Ave,4,11,40.824811,-73.916407
856,University Ave & W 168 St,4,12,40.838706,-73.927034
857,E 170 St & Clay Ave,4,16,40.837213,-73.908345
858,Webster Ave & E 166 St,19,0,40.828975,-73.911259
859,Hunts Point Ave & Bryant Ave,12,5,40.813991,-73.8855
860,Clinton St & Tillary St,4,28,40.696232971293156,-73.99142056703568
861,Franklin Ave & E 169 St,5,11,40.83171,-73.90208
862,Boston Rd & Prospect Ave,9,10,40.833246,-73.896599
863,3 Ave & E 163 St,21,5,40.823872,-73.908699
864,Barry St & Tiffany St,13,5,40.816126,-73.891559
865,Lexington Ave & E 36 St,1,21,40.747573958954796,-73.9788007736206
866,River Ave & E 151 St,22,3,40.822217,-73.928939
867,Washington Ave & E 163 St,16,5,40.824,-73.91089
868,Prospect Ave & E 167 St,6,12,40.826303,-73.898751
869,E 165 St & Fox St,0,26,40.82394,-73.894025
870,Waterloo Pl & Crotona Park East,2,14,40.839194,-73.888587
871,Crotona Park East & E 173 St,9,6,40.837037,-73.890413
872,Boone Ave & E 172 St,16,3,40.832649,-73.885272
873,Grand Army Plaza & Central Park S,10,78,40.7643971,-73.97371465
874,Washington Ave & E 174 St,13,5,40.843079,-73.900216
875,Carroll St & Columbia St,29,8,40.6830456,-74.00348559
876,Bialystoker Pl & Delancey St,26,5,40.71622644,-73.98261206
877,Frederick Douglass Blvd & W 145 St,22,4,40.823061,-73.941928
878,Charlotte St & Boston Rd,11,6,40.8358771,-73.8931428
879,Southern Blvd & E 175 St,2,13,40.839335,-73.886445
880,Lafayette Ave & Hunts Point Ave,0,18,40.816567,-73.888161
881,W 51 St & 6 Ave,24,54,40.7606597,-73.98042047
882,Sheridan Ave & E 172 St,9,14,40.840494,-73.911479
883,Garrison Ave & Manida St,25,5,40.818743,-73.890247
884,E 11 St & 1 Ave,50,10,40.72953837,-73.98426726
885,E 170 St & Webster Ave,12,5,40.83617913677475,-73.90730146322765
886,E 11 St & Avenue B,20,42,40.72746420692392,-73.97950418293476
887,Riverside Dr & W 153 St,13,6,40.832164,-73.949702
888,E 174 St & Walton Ave,9,16,40.844811,-73.912042
889,Fulton Ave & E 172 St,11,7,40.839229,-73.899047
890,Southern Blvd & E 149 St,7,18,40.811892,-73.904192
891,E 68 St & Madison Ave,25,28,40.7691572,-73.96703464
892,E 68 St & 3 Ave,11,24,40.76712840349542,-73.96224617958069
893,E 63 St & 3 Ave,20,34,40.763954,-73.9646
894,Henry St & Bay St,17,0,40.6725058,-74.00494695
895,E 84 St & 1 Ave,15,10,40.77565541,-73.95068615
896,24 Ave & 26 St,6,12,40.774591,-73.918544
897,W 54 St & 11 Ave,5,45,40.768333,-73.992573
898,W 44 St & 11 Ave,19,54,40.762009,-73.996975
899,Westchester Ave & Southern Blvd,11,8,40.824956,-73.891677
900,Seneca Ave & Irvine St,5,12,40.81872569990116,-73.88862490653992
901,E 9 St & Avenue C,31,15,40.72521311,-73.97768752
902,Old Slip & South St,87,0,40.70336686695866,-74.007867872715
903,Lexington Ave & E 24 St,15,63,40.74025878,-73.98409214
904,Hudson St & W 13 St,40,1,40.74005708567285,-74.0052741765976
905,West Thames St,57,10,40.70834698,-74.01713445
906,E 6 St & Avenue B,31,61,40.72453734,-73.98185424
907,Cadman Plaza E & Tillary St,14,38,40.69597683,-73.99014892
908,Spring St & Hudson St,26,12,40.72583996792375,-74.0076532959938
909,Thompson St & Bleecker St,54,3,40.72840059450829,-73.99968780577183
910,34th Ave & Vernon Blvd,24,4,40.76535380385866,-73.93986314535141
911,W 10 St & Washington St,61,4,40.73342399437081,-74.00851495563984
912,34 Ave & 31 St,14,3,40.759604471387945,-73.92714411020279
913,18 St & 27 Ave,0,23,40.772768286288304,-73.92743647098541
914,Washington St & Barrow St,36,12,40.73191132323174,-74.008769094944
915,8 St & Astoria Blvd,14,3,40.7725996921817,-73.93266275525093
916,E 54 St & 1 Ave,10,30,40.756265,-73.964179
917,Southern Blvd & E 174 St,7,20,40.836733,-73.887931
918,24 St & 38 Ave,15,4,40.756351,-73.936515
919,Home St & Westchester Ave,4,16,40.827629,-73.886659
920,Morris Ave & E 163 St,2,17,40.827230499624726,-73.91765579597632
921,35 St & 30 Ave,2,27,40.76547569244953,-73.91811579465866
922,Steinway St & Broadway,16,10,40.75905795418586,-73.91897544264793
923,Nelson Ave & 167 St,19,0,40.83670566862804,-73.92608866095543
924,Shore Blvd & Astoria Park,13,16,40.77977,-73.923162
925,E 44 St & Lexington Ave,12,36,40.752643,-73.974996
926,W 36 St & 7 Ave,16,21,40.752149,-73.989539
927,E 27 St & Park Ave S,17,50,40.74275179648995,-73.9847157150507
928,W 29 St & 9 Ave,5,18,40.7500727,-73.99839279
929,3 Ave & E 169 St,7,11,40.832678,-73.905158
930,34 St & 38 Ave,4,20,40.752443,-73.929737
931,43 St & 35 Ave,1,23,40.754139,-73.919543
932,38 St & Northern Blvd,2,21,40.752372,-73.925384
933,30 Ave & 41 St,4,16,40.763422,-73.914142
934,34 Ave & 45 St,1,21,40.754795,-73.917014
935,30 Ave & 47 St,2,18,40.761294,-73.909562
936,43 St & 37 Ave,5,14,40.750181,-73.919998
937,46 St & 25 Ave,2,21,40.765753,-73.90676
938,50 St & 30 Ave,4,19,40.760083,-73.907107
939,34 Ave & 48 St,15,9,40.75388,-73.914952
940,25 Ave & 41 St,5,18,40.767666,-73.910963
941,48 St & Broadway,8,19,40.755763,-73.912715
942,Bulova Ave & Brooklyn Queens Expressway W,9,8,40.762507,-73.902534
943,Broadway & 49 St,18,7,40.755389,-73.911517
944,50 St & Northern Blvd,18,4,40.753441,-73.912402
945,31 Ave & 57 St,10,12,40.757357,-73.904726
946,Broadway & 51 St,15,10,40.754164,-73.908906
947,43 St & 23 Ave,1,21,40.769673,-73.906018
948,W 95 St & Broadway,8,21,40.7937704,-73.971888
949,62 St & Northern Blvd,15,10,40.754176,-73.900318
950,E 12 St & Ave C,18,20,40.727243,-73.976831
951,57 St & 1 Ave,21,5,40.646377,-74.023087
952,Steinway St & Ditmars Blvd,5,16,40.772717,-73.906127
953,58 St & 2 Ave,31,4,40.644512,-74.021506
954,36 St & Ditmars Blvd,13,11,40.774306,-73.908335
955,Ditmars Blvd & 43 St,15,10,40.771203,-73.903865
956,Steinway St & 21 Ave,7,13,40.774798,-73.903787
957,31 St & 21 Ave,16,11,40.77813,-73.90842
958,21 Ave & Shore Blvd,16,5,40.783956,-73.916894
959,21 Ave & Crescent St,4,20,40.780478,-73.912212
960,Hazen St & 20 Ave,1,22,40.772092,-73.895166
961,Steinway St & 19 Ave,18,2,40.778089,-73.899558
962,Ditmars Blvd & 79 St,4,19,40.768728,-73.890745
963,76 St & 21 Ave,0,19,40.77028,-73.893675
964,8 Ave & W 27 St,9,19,40.747968,-73.996637
965,E 14 St & Avenue B,17,20,40.72938685,-73.97772429
966,E 13 St & 2 Ave,46,4,40.73153937464073,-73.9853024482727
967,20 Ave & 38 St,20,8,40.777112,-73.902382
968,20 Ave & 48 St,15,6,40.772899,-73.896849
969,Windsor Pl & 8 Ave,19,0,40.660906,-73.983074
970,38 St & 30 Ave,11,15,40.764174520197685,-73.91583994030952
971,16th St & 4th Ave,27,2,40.666197,-73.992466
972,17 St & 5 Ave,13,11,40.663493,-73.991007
973,6 Ave & 21 St,14,11,40.66016,-73.990974
974,21 St & 4 Ave,12,6,40.662584,-73.995554
975,Prospect Park W & 20 St,8,14,40.656633,-73.983864
976,23 St & 3 Ave,23,0,40.662611,-73.998623
977,30 St & 4 Ave,16,2,40.657743,-74.001141
978,11 Ave & Prospect Ave,2,17,40.65629,-73.977335
979,34 St & 4 Ave,17,5,40.655278,-74.003101
980,2 Av & 37 St,17,14,40.656326,-74.009627
981,3 Ave & 17 St,16,3,40.666168,-73.995549
982,29 St & 5 Ave,14,2,40.656986,-73.998194
983,34 St & 5 Ave,17,1,40.654098,-74.001131
984,5 Ave & 37 St,26,2,40.652657,-74.002356
985,2 Ave & E 29 St,1,53,40.741723510974715,-73.97809267044067
986,2 Ave & 32 St,27,0,40.659176,-74.006584
987,Albany St & Greenwich St,42,1,40.709267,-74.013247
988,41 St & 3 Ave,17,1,40.652512,-74.008906
989,41 St & 4 Ave,21,2,40.651354,-74.007168
990,5 Ave & 41 St,13,16,40.649983,-74.005144
991,7 Ave & 20 St,15,1,40.659053,-73.98854
992,Forsyth St & Grand St,30,25,40.71779817737835,-73.99316132068634
993,24 St & 5 Ave,11,7,40.659555,-73.995068
994,7 Ave & 22 St,12,11,40.658029,-73.989605
995,W 31 St & 7 Ave,23,53,40.749156,-73.9916
996,48 St & 2 Ave,11,7,40.650176,-74.015606
997,46 St & 6 Ave,2,18,40.645921,-74.005708
998,44 St & 6 Ave,6,16,40.647105,-74.004483
999,Ft. Hamilton Pkwy & E 5 St,21,0,40.649037,-73.97673
1000,Greenwood Ave & E 4 St,19,0,40.650739,-73.977739
1001,Clinton St & Cherry St,19,11,40.711471394469264,-73.98672603070736
1002,46 St & 7 Ave,4,15,40.644743,-74.003754
1003,55 St & 5 Ave,3,24,40.642408,-74.013318
1004,52 St & 1 Ave,21,1,40.649292,-74.020105
1005,53 St & 5 Ave,3,24,40.643371,-74.011884
1006,52 St & 6 Ave,5,14,40.642703,-74.009441
1007,53 St & 4 Ave,23,2,40.644862,-74.014531
1008,59 St & 4 Ave,2,32,40.641269,-74.017651
1009,Ft. Hamilton Pkwy & E 2 St,13,2,40.648005,-73.979342
1010,64 St & 3 Ave,28,6,40.639978,-74.02324
1011,6 Ave & 60 St,5,15,40.638196,-74.013821
1012,36 St & 4 Ave,22,4,40.654144,-74.00422
1013,7 Ave & 40 St,2,18,40.648169,-74.000057
1014,44 St & 3 Ave,21,1,40.651173,-74.011405
1015,Prospect Park SW & 10 Ave,26,2,40.659945,-73.977504
1016,Windsor Pl & Howard Pl,4,20,40.659490558938955,-73.98013919591904
1017,36 St & 3 Ave,27,1,40.655716,-74.006664
1018,57 St & 4 Ave,8,14,40.642622,-74.016866
1019,55 St & 7 Ave,15,10,40.639673,-74.008957
1020,Dahill Rd & 12 Ave,21,0,40.646037,-73.980963
1021,Prospect Park SW & Greenwood Ave,23,5,40.652563,-73.972573
1022,E 8 St & Caton Ave,22,6,40.648055,-73.972432
1023,Caton Ave & E 10 St,19,9,40.648481,-73.97058
1024,Albemarle Rd & McDonald Ave,14,3,40.645074,-73.979681
1025,E 3 St & Church Ave,17,3,40.643817,-73.977433
1026,Caton Ave & E 7 St,16,4,40.647718,-73.973663
1027,Lenox Ave & W 140 St,22,0,40.817245,-73.938787
1028,4 Ave & Shore Road Dr,8,12,40.637033,-74.022141
1029,Greenwich St & Perry St,31,14,40.73498,-74.00697
1030,Parade Pl & Crooke Ave,18,10,40.651847,-73.965248
1031,4 Ave & 17 St,20,0,40.665507,-73.993037
1032,6 Ave & 55 St,1,18,40.640831,-74.010996
1033,7 Ave & 41 St,12,9,40.647379,-74.000911
1034,65 St & 2 Ave,3,16,40.640493,-74.02564
1035,Church Ave & Story St,22,0,40.642031,-73.981073
1036,12 Ave & 36 St,12,7,40.643546,-73.986418
1037,Chester Ave & 12 Ave,15,3,40.644367,-73.984276
1038,5 Ave & 66 St,13,7,40.635679,-74.020005
1039,3 Ave & Wakeman Pl,8,16,40.638246,-74.024714
1040,47 St & 3 Ave,18,5,40.649143,-74.012384
1041,Church Ave & McDonald Ave,27,0,40.642809,-73.979239
1042,67 St & Erik Pl,23,2,40.633385,-74.016562
1043,48 St & 5 Ave,8,19,40.646351,-74.009271
1044,63 St & 5 Ave,12,11,40.63766,-74.01782
1045,Wyckoff Ave & Gates Ave,19,15,40.699871408829885,-73.91171872615814
1046,Morton St & Washington St,28,2,40.73115,-74.00887
1047,Park Cir & East Dr,25,4,40.651566,-73.972212
1048,W 50 St & 10 Ave,4,50,40.764734200065185,-73.99194359779358
1049,Broadway & W 192 St,19,3,40.857994,-73.932173
1050,Nagle Ave & Thayer St,29,4,40.861382,-73.925591
1051,Broadway & W 185 St,4,13,40.852538,-73.93441
1052,10 Ave & W 14 St,47,3,40.741981599940225,-74.00831580162048
1053,Ft. Washington Ave & W 190 St,3,14,40.856906,-73.935662
1054,W 190 St & Broadway,12,7,40.85648733523576,-73.93296986818314
1055,India St Pier,37,15,40.731734785883454,-73.9612390102593
1056,Broadway & Ellwood St,15,4,40.862058,-73.929719
1057,Nagle Ave & Ellwood St,19,2,40.86012,-73.928489
1058,Grand Army Plaza & Plaza St West,8,29,40.6729679,-73.97087984
1059,Seaman Ave & Beak St,16,5,40.867505,-73.926363
1060,Dyckman St & Staff St,16,1,40.868846,-73.931537
1061,W 204 St & Nagle Ave,6,14,40.863211,-73.920827
1062,10 Ave & W 204 St,18,0,40.862638,-73.92006
1063,Dyckman St & Henshaw St,18,0,40.867357,-73.92936
1064,Warren St & W Broadway,8,55,40.71473993,-74.00910627
1065,Isham St & Broadway,19,9,40.86788,-73.919685
1066,10 Ave & W 207 St,33,2,40.864632,-73.918598
1067,1 Ave & E 6 St,70,21,40.72633085971696,-73.98616880178452
1068,W 204 St & Vermilyea Ave,13,8,40.866141,-73.922648
1069,Bergen St & 4 Ave,2,26,40.68256425759694,-73.9798977971077
1070,10 Ave & W 202 St,20,2,40.861281970750994,-73.921417593956
1071,Leonard St & Church St,11,42,40.717571,-74.005549
1072,E 9 St & 5 Ave,22,34,40.73275887045087,-73.99581670761108
1073,Margaret Corbin Plz & Ft Washington Ave,0,19,40.859166,-73.933872
1074,Grand St & Samuel Dickstein Plaza,41,38,40.715118719964956,-73.98417055606842
1075,10 Ave & W 215 St,16,2,40.86932465640094,-73.91519755125046
1076,W 218 St & Indian Rd,13,5,40.873054589370895,-73.91837194561958
1077,1 St & 6 Ave,12,21,40.672784,-73.979826
1078,E 171 St & 3 Ave,12,9,40.837119,-73.902185
1079,Bay St & Court St,21,2,40.671409,-74.001328
1080,Prospect Park SW & 16 St,19,12,40.657265,-73.974165
1081,Congress St & Hicks St,32,1,40.6893952,-73.9995126
1082,Warren St & Smith St,30,2,40.685424009970184,-73.99127773940563
1083,59 St & 5 Ave,12,17,40.640125,-74.015726
1084,Prospect Park SW & Vanderbilt St,29,4,40.65482,-73.973217
1085,Broadway & W 168 St,11,18,40.84089603193041,-73.93972098827362
1086,Sherman Ave & Thayer St,19,2,40.863124,-73.926994
1087,Van Brunt St & Van Dyke St,22,0,40.6758329439129,-74.01472628116608
1088,Hart St & Wyckoff Ave,15,8,40.704876,-73.919911
1089,9 Ave & W 219 St,16,2,40.871094,-73.911503
1090,Broadway & W 220 St,16,0,40.872412,-73.912807
1091,W 218 St & Broadway,18,7,40.87139,-73.914318
1092,4 Ave & 3 St,37,2,40.673746,-73.985649
1093,Dyckman St & 10 Ave,15,1,40.85890447538412,-73.9230939745903
1094,St Marks Pl & 4 Ave,1,23,40.68177810928762,-73.97988975048065
1095,Featherbed Ln & Nelson Ave,3,19,40.846011,-73.919637
1096,45 St & 4 Ave,5,16,40.649145,-74.009486
1097,Anthony Ave & E 175 St,0,16,40.846465,-73.903869
1098,4 Ave & 26 St,13,8,40.660079,-73.998633
1099,Jerome Ave & W 177 St,27,1,40.850121,-73.910765
1100,Soissons Landing,19,6,40.69231660719192,-74.01486575603485
1101,Yankee Ferry Terminal,6,31,40.68706579875912,-74.01675585121666
1102,Picnic Point,12,31,40.68512559515415,-74.02535319328308
1103,Amsterdam Ave & W 79 St,22,21,40.7829391,-73.9786517
1104,Anthony Ave & E Tremont Ave,8,10,40.848793,-73.903178
1105,E Tremont Ave & Jerome Ave,14,4,40.851747,-73.908964
1106,South Waterfront Walkway - Sinatra Dr & 1 St,23,6,40.73698221818716,-74.02778059244156
1107,11 St & Washington St,9,14,40.74998490907138,-74.02715027332306
1108,President St & 4 Ave,24,4,40.676757,-73.983262
1109,Mama Johnson Field - 4 St & Jackson St,16,5,40.74313993965626,-74.04004096984863
1110,Ave D & E 8 St,13,13,40.72368361,-73.97574813
1111,W Burnside Ave & University Ave,17,4,40.853686,-73.912498
1112,W Tremont Ave & Montgomery Ave,3,18,40.851788,-73.916418
1113,Davidson Ave & W Burnside Ave,31,1,40.853646,-73.908731
1114,E Tremont Ave & E 176 St,14,6,40.847798,-73.901883
1115,Madison St & 1 St,20,0,40.73879,-74.0393
1116,Church Sq Park - 5 St & Park Ave,3,18,40.74265933273143,-74.03223305940628
1117,Bloomfield St & 15 St,10,4,40.75453,-74.02658
1118,19 St & 8 Ave,9,14,40.658489,-73.985543
1119,Sedgwick Ave & W Burnside Ave,5,12,40.854947,-73.916661
1120,E 20 St & Park Ave,30,10,40.73827428,-73.98751968
1121,Lexington Ave & Classon Ave,2,14,40.68676793,-73.95928168
1122,Walton Ave & E 183 St,3,25,40.858472,-73.90266
1123,Academy St & Nagle Ave,12,5,40.862562,-73.922661
1124,Southwest Park - Jackson St & Observer Hwy,16,5,40.73755127245804,-74.04166370630264
1125,Cedar Ave & W Fordham Rd,21,3,40.86156,-73.91219
1126,Jerome Ave & E 181 St,2,16,40.855653,-73.905528
1127,E 33 St & 1 Ave,24,47,40.74322681432173,-73.97449783980846
1128,6 St & Grand St,2,16,40.744397833095604,-74.03450086712837
1129,Adams St & 11 St,7,10,40.750915534784994,-74.03354063630104
1130,Madison St & 10 St,10,11,40.74994325412246,-74.03586477041245
1131,Grand St & 14 St,14,5,40.75409,-74.0316
1132,W Tremont Ave & Grand Ave,8,12,40.850036,-73.912785
1133,University Ave & Brandt Pl,6,16,40.848354,-73.918389
1134,Andrews Ave S & W 179 St,3,17,40.855156,-73.91278
1135,Webster Ave & Ford St,19,2,40.85556,-73.89615
1136,E 188 St & Creston Ave,2,29,40.861669,-73.898589
1137,Henry St & Remsen St,8,14,40.69400964865994,-73.99465128779411
1138,Bridge St & Water St,42,3,40.702969341552716,-73.98469090461731
1139,Jerome Ave & W 193 St,11,5,40.86659,-73.89794
1140,Grand Ave & W Fordham Rd,1,19,40.86288,-73.90316
1141,E 11 St & 3 Ave,0,0,40.73127,-73.98849
1142,Clinton St & 7 St,7,10,40.74542,-74.03332
1143,4 St & Grand St,7,12,40.7422579775645,-74.03511106967926
1144,9 St HBLR - Jackson St & 8 St,6,10,40.74790720968899,-74.03841152787209
1145,7 St & Monroe St,12,8,40.74641264837719,-74.03797701001167
1146,Morris Ave & E 184 St,17,3,40.86008,-73.90079
1147,Andrew Ave N & Hall of Fame Tce,12,6,40.85834,-73.91008
1148,E Burnside Ave & Ryer Ave,13,8,40.850535,-73.901318
1149,Valentine Ave & E 183 St,2,16,40.856987,-73.898237
1150,Bainbridge Ave & E 193 St,19,7,40.86389,-73.89246
1151,Grand Concourse & E 197 St,4,13,40.86945,-73.89148
1152,Goulden Ave & Bedford Park Blvd W,12,6,40.87387,-73.89533
1153,Grand Concourse & E 199 St,1,17,40.87142,-73.88839
1154,Bedford Park Blvd & Paul Ave,14,7,40.87444,-73.89186
1155,Goulden Ave & W 197 St,6,12,40.87156,-73.89714
1156,Ocean Pkwy & Church Ave,18,5,40.644718957635746,-73.97451460361481
1157,Lewis Ave & Madison St,0,21,40.686312,-73.935775
1158,Grand Concourse & E 203 St,0,25,40.87382,-73.88661
1159,Grand Concourse & E 192 St,15,4,40.86448,-73.89522
1160,Marion Ave & Mosholu Pkwy,19,0,40.8704956,-73.8818756582
1161,Dock St & Front St,17,8,40.702709,-73.99253
1162,Nassau St & Duffield St,47,4,40.698477,-73.98384
1163,Myrtle Ave & Fleet Pl,24,20,40.693534,-73.981909
1164,University Ave & W Burnside Ave,2,22,40.85501,-73.910751
1165,Morris Ave & E Burnside Ave,2,17,40.85322,-73.90546
1166,Hoboken Terminal - Hudson St & Hudson Pl,12,11,40.73593758446329,-74.03030455112457
1167,Amsterdam Ave & W 186 St,10,11,40.851113,-73.928808
1168,E Fordham Rd & Webster Ave,21,5,40.861748,-73.89105
1169,Decatur Ave & E 197 St,18,0,40.86557,-73.88807
1170,W Fordham Rd & Loring Pl N,5,18,40.86295,-73.90741
1171,Jerome Ave & W 184 St,2,17,40.860814,-73.902541
1172,Bailey Ave & Sedgwick Ave,16,3,40.86571,-73.90857
1173,Bainbridge Ave & E 196 St,4,14,40.86648,-73.89042
1174,Grand Concourse & E 196 St,17,4,40.86767,-73.89286
1175,Creston Ave & E 181 St,9,13,40.8549,-73.90281
1176,Botanical Sq & Webster Ave,28,0,40.86814,-73.88145
1177,Decatur Ave & Bedford Park Blvd,19,0,40.86813,-73.88412
1178,Goulden Ave & W 205 St,6,10,40.87812,-73.89192
1179,Bainbridge Ave & Bedford Park Blvd,13,6,40.87002,-73.88565
1180,E Mosholu Pkwy & Van Cortlandt Ave E,8,9,40.87656,-73.88366
1181,Jerome Ave & E Mosholu Parkway S,4,15,40.87935,-73.88534
1182,Paul Ave & W 205 St,15,2,40.87704,-73.88943
1183,Grand Concourse & E Mosholu Pkwy S,1,15,40.877964,-73.8847550291
1184,McDonald Ave & Vanderbilt St,15,3,40.651654,-73.981231
1185,W Mosholu Pkwy S & Sedgwick Ave,29,8,40.88226,-73.88702
1186,Spruce St & Gold St,33,17,40.7103231,-74.0043228
1187,Jerome Ave & W 195 St,8,23,40.86874,-73.89657
1188,Tiebout Ave & E 184 St,9,7,40.858498,-73.89637
1189,Adams St & Prospect St,5,52,40.700763083261506,-73.98869812488556
1190,Bailey Ave & W 193 St,16,6,40.87069,-73.90678
1191,Sands St & Jay St,45,0,40.700119,-73.9862
1192,Paul Ave & Mosholu Pkwy,9,9,40.8802945,-73.8860653648
1193,Grand Concourse & E 205 St,2,15,40.875531,-73.8863864831
1194,Jerome Ave & Bedford Park Blvd E,17,6,40.87307,-73.88971
1195,Frederick Douglass Blvd & W 139 St,12,9,40.81900581806558,-73.94476890563965
1196,Broadway & W 142 St,4,14,40.824686,-73.951947
1197,Bergen Ave & Stegman St,3,16,40.70657545063453,-74.0867006778717
1198,5 Ave & W 126 St,18,8,40.80722,-73.9418
1199,Bridge St & York St,51,1,40.70133448066992,-73.98471236228943
1200,Webb Ave & W 190 St,4,13,40.8660052,-73.904254892
1201,Aqueduct Ave & North St,12,6,40.8604787,-73.9057169936
1202,6 Ave & Broome St,15,53,40.72431,-74.00473
1203,E Mosholu Pkwy & E 204 St,4,14,40.8740704,-73.8833650931
1204,E 91 St & 2 Ave,37,34,40.781152764279156,-73.94963040947914
1205,Central Park W & W 103 St,35,2,40.79558954105342,-73.96188408136368
1206,Fulton St & William St,10,28,40.70960089363537,-74.00655090808868
1207,Montague St & Clinton St,4,24,40.6942715,-73.9923272
1208,E 88 St & 1 Ave,25,10,40.778301,-73.9488134
1209,Congress St & Clinton St,35,8,40.68825516598005,-73.99545192718506
1210,Bushwick Ave & Powers St,4,25,40.71247661,-73.94100005
1211,Grand Concourse & E 161 St,10,12,40.82713380423556,-73.9227358996868
1212,E 59 St & Madison Ave,17,32,40.76350532,-73.97109243
1213,Sterling St & Bedford Ave,9,10,40.6627059,-73.9569115
1214,Willow Ave & 12 St,3,12,40.7518674823282,-74.03037697076797
1215,Sedgwick Ave & Hall of Fame Tce,9,8,40.859532,-73.913303
1216,Macombs Rd & Featherbed Ln,13,2,40.84552,-73.91722
1217,62 St & 4 Ave,7,10,40.639859,-74.019776
1218,Jerome Ave & E 198 St,8,12,40.87144520687118,-73.89289632439613
1219,Grant Ave & MLK Dr,11,7,40.70919832245443,-74.08084273338318
1220,Creston Ave & E 178 St,7,17,40.850885,-73.906469
1221,Loring Pl North & W 183 St,7,13,40.8604244,-73.9093359997
1222,Green St & McGuinness Blvd,16,4,40.73396,-73.95204
1223,W 192 St & University Ave,12,8,40.866899,-73.901942
1224,Decatur Ave & Oliver Pl,22,0,40.867,-73.8857764
1225,Bainbridge Ave & E 198 St,8,10,40.8684871,-73.8884559781
1226,Broadway & W 56 St,75,35,40.7652654,-73.98192338
1227,E 201 St & Briggs Ave,14,5,40.87207,-73.88459
1228,Rogers Ave & Sterling St,7,10,40.6630619,-73.9538746
1229,Broadway & W 38 St,16,36,40.7529728216068,-73.98734897375107
1230,Broadway & E 21 St,9,41,40.739888408589955,-73.98958593606949
1231,E 5 St & Avenue C,27,25,40.72299208,-73.97995466
1232,E 1 St & 1 Ave,33,38,40.72335597960796,-73.98864984512329
1233,Longfellow Ave & E 165 St,15,5,40.825322,-73.887729
1234,20 Ave & 21 St,10,9,40.784003,-73.912297
1235,20 Ave & Shore Blvd,3,14,40.785994,-73.915098
1236,Richardson St & N Henry St,4,17,40.71907891179564,-73.94223690032959
1237,12 St & Sinatra Dr N,17,10,40.750604142368964,-74.02402013540268
1238,W 168th S & Fort Washington Ave,13,30,40.84210236102173,-73.9422395825386
1239,Mt Morris Park W & W 120 St,23,3,40.804038,-73.945925
1240,W 144 St & Adam Clayton Powell Blvd,21,2,40.820877,-73.939249
1241,E 103 St & Lexington Ave,26,4,40.7903051,-73.94755757
1242,Division Ave & Hooper St,14,39,40.70684203101325,-73.9544353965357
1243,Sullivan St & Washington Sq,40,12,40.73047747,-73.99906065
1244,Vesey St & Church St,6,37,40.71221958009051,-74.01047229766846
1245,W 225 St & Exterior St,15,1,40.873265,-73.906646
1246,Broadway & W 53 St,0,80,40.76344058,-73.98268129
1247,Fulton St & Clermont Ave,2,70,40.68415748,-73.96922273
1248,5 Ave & E 87 St,23,11,40.78232260730881,-73.95987510681152
1249,49 St & 31 Ave,11,7,40.758057,-73.909831
1250,49 St & 25 Ave,4,21,40.764496,-73.904632
1251,31 Ave & 61 St,19,1,40.757525,-73.901614
1252,Courtlandt Ave & E 149 St,7,11,40.816402,-73.919549
1253,Macombs Rd & W 175 St,5,13,40.848177,-73.916082
1254,20 Ave & 42 St,15,2,40.775415,-73.900063
1255,Flatbush Ave & Ocean Ave,12,25,40.663657,-73.963014
1256,Water St & Gouverneur Ln,29,7,40.70469667894968,-74.00803416967392
1257,53 St & 2 Ave,26,3,40.64744,-74.018846
1258,Nelson Ave & W 172 St,4,12,40.843965,-73.920999
1259,E 161 St & River Ave,19,15,40.827883,-73.927111
1260,W 22 St & 10 Ave,45,31,40.74691959,-74.00451887
1261,W 37 St & 5 Ave,13,45,40.75038009,-73.98338988
1262,E 48 St & 5 Ave,13,46,40.75724567911726,-73.97805914282799
1263,W 44 St & 5 Ave,34,32,40.75500254,-73.98014437
1264,E 40 St & 5 Ave,20,66,40.752062307,-73.9816324043
1265,Ryer Ave & E 182 St,9,14,40.8558,-73.89956
1266,Plaza St West & Flatbush Ave,1,31,40.6750207,-73.97111473
1267,Bergen St & Flatbush Ave,0,30,40.680944723477296,-73.97567331790923
1268,City Hall - Washington St & 1 St,1,21,40.73736,-74.03097
1269,Clinton St & Newark St,2,10,40.73743,-74.03571
1270,Hudson St & 4 St,4,8,40.74097260864355,-74.02860336005688
1271,W 176 St & Montgomery Ave,1,17,40.849629,-73.919205
1272,Popham Ave & W 174 St,9,8,40.847746,-73.922079
1273,Coffey St & Ferris St,22,0,40.67818387977647,-74.0170168876648
1274,Prospect Ave & Greenwood Ave,16,6,40.651745,-73.975988
1275,1 Pl & Clinton St,11,22,40.6809591,-73.99905709
1276,E 40 St & Park Ave,7,76,40.750756,-73.978326
1277,E 41 St & Madison Ave (SE corner),43,50,40.752049,-73.979635
1278,Broadway & W 58 St,36,40,40.76695317,-73.98169333
1279,W 37 St & 10 Ave,7,29,40.75660359,-73.9979009
1280,W 36 St & 9 Ave,3,38,40.75462324029105,-73.99516761302948
1281,Washington St & Gansevoort St,18,30,40.739323,-74.008119
1282,58 St & Pier 4,21,4,40.646475,-74.026081
1283,Adams St & 2 St,4,11,40.73981372311843,-74.03690412640572
1284,45 Ave & 21 St,7,7,40.74737075646803,-73.94777297973631
1285,51 St & Hobart St,10,12,40.75767234025041,-73.90769943594933
1286,Grand Ave & W 181 St,14,4,40.856302,-73.907302
1287,Marshall St & 2 St,15,3,40.740802,-74.042521
1288,Broadway & W 61 St,13,33,40.77003010255044,-73.9819684624672
1289,E 55 St & 2 Ave,5,20,40.75797322,-73.96603308
1290,14 St & 7 Ave,3,17,40.663779,-73.98396846
1291,Railroad Ave & Kay Ave,11,17,40.70514807698391,-73.97078096866608
1292,5 St & Market St,23,16,40.699997484388504,-73.97440128028393
1293,University Pl & E 8 St,0,0,40.73143724085228,-73.99490341544151
1294,Suffolk St & Stanton St,25,50,40.72066442,-73.98517977
1295,8 Ave & W 38 St,24,38,40.75461,-73.99177
1296,King St & Varick St,23,11,40.72789701409023,-74.00536268949507
1297,9 Ave & W 45 St,0,29,40.76019252,-73.9912551
1298,9 Ave & W 18 St,27,55,40.74317449,-74.00366443
1299,MacDougal St & Prince St,40,14,40.72710258,-74.00297088
1300,E 133 St & Cypress Pl,16,1,40.80262,-73.9174
1301,Van Buren St & Broadway,6,0,40.692,-73.92617
1302,23 Rd & 31 St,8,12,40.77336750284339,-73.91382560133934
1303,Avenue D & E 12 St,17,22,40.72580614,-73.97422494
1304,Mercer St & Bleecker St,62,1,40.72706363348306,-73.99662137031554
1305,Great Jones St,14,7,40.72743423,-73.99379025
1306,E 170 St & Sheridan Ave,10,19,40.838315,-73.912604
1307,1 Ave & E 39 St,12,38,40.74714,-73.97113
1308,Maiden Ln & Pearl St,13,13,40.70706456,-74.00731853
1309,8 Ave & W 52 St,13,0,40.76370739,-73.9851615
1310,Duane St & Hudson St,19,22,40.71703,-74.00925
1311,W 48 St &  Rockefeller Plaza,16,35,40.75776935448309,-73.97929430007935
1312,Washington Square E,11,45,40.73049393,-73.9957214
1313,Sterling Pl & 5 Ave,8,16,40.678970070475735,-73.97855266928671
1314,W 42 St & 8 Ave,5,34,40.7575699,-73.99098507
1315,W 47 St & 6 Ave,1,64,40.758397,-73.98255
1316,Broadway & W 41 St,13,36,40.75513557,-73.98658032
1317,E 5 St & Ave A,22,26,40.72479007746337,-73.98430064320564
1318,E 167 St & Clay Ave,27,0,40.83094,-73.91125
1319,W 12 St & Hudson St,9,30,40.73752993301071,-74.00558933615685
1320,Ogden Ave & W 164 St,2,17,40.832812,-73.929372
1321,Broadway & Morris St,68,0,40.705945132708806,-74.01321887969969
1322,W 34 St & Hudson Blvd E,12,39,40.75516719072139,-74.00059908628464
1323,West Broadway & Watts St,4,29,40.72323,-74.00314
1324,Greene St & Prince St,10,31,40.72511734422387,-73.99930492043495
1325,Washington St & Laight St,14,28,40.72231,-74.0106
1326,Fairmount Ave,1,16,40.72572613742557,-74.07195925712585
1327,Stevens - River Ter & 6 St,1,17,40.74313282710551,-74.02698867022991
1328,South St & Pike St,33,1,40.70991806921533,-73.99161100387573
1329,E 10 St & 2 Ave,31,6,40.72970805644994,-73.9865979552269
1330,7 Ave S & Bleecker St,44,36,40.73213896287381,-74.00363802909851
1331,6 Ave & Walker St,22,15,40.7197920901383,-74.0052238852195
1332,W 56 St & 6 Ave,2,45,40.76340613,-73.97722479
1333,Rutgers St & Henry St,11,28,40.71332151208186,-73.99009689688683
1334,Water St &  Fletcher St,68,11,40.706410755236135,-74.00559738278389
1335,Hoe Ave & Jennings St,1,16,40.832171,-73.889686
1336,Grand Concourse & E 144 St,6,16,40.816576,-73.927987
1337,E 26 St & 3 Ave,17,15,40.74069317733043,-73.98160636425018
1338,E 22 St & 2 Ave,14,17,40.73716919369882,-73.98122549057007
1339,31 St & Ditmars Blvd,18,4,40.776168,-73.910485
1340,W Tremont Ave & Matthewson Rd,15,2,40.853827,-73.920765
1341,E 20 St & FDR Dr,6,66,40.733208626522426,-73.9756813647
1342,W 30 St & 8 Ave,45,19,40.74965268472847,-73.9952078461647
1343,Ave A & E 14 St,16,13,40.73031071000895,-73.98047178983688
1344,Ave A & E 11 St,22,44,40.72854745023944,-73.98175925016403
1345,Central Ave & Weirfield St,3,16,40.69055,-73.91181
1346,Perry St & Greenwich Ave,22,27,40.735918,-74.000939
1347,Kenmare St & Elizabeth St,28,5,40.72054,-73.9949
1348,Orchard St & Grand St,2,26,40.717318403855785,-73.99067759513855
1349,Tiebout Ave & E Fordham Road,24,0,40.861915,-73.894831
1350,Valentine Ave & E 181 St,14,7,40.854123869116,-73.89932222664356
1351,Madison St & Montgomery St,12,5,40.713126,-73.984844
1352,Audubon Ave & W 192 St,1,14,40.85589030603889,-73.92708241939545
1353,Grand Concourse & E 175 St,8,15,40.84627592921954,-73.90931278467178
1354,Calyer St & Guernsey St,19,1,40.72755807335852,-73.95505852997303
1355,E 156 St & Courtlandt Ave,16,6,40.82123860172,-73.9173299074173
1356,W 56 St & 8 Ave,0,46,40.765959181657976,-73.98313522338867
1357,Walker St & Baxter St,37,9,40.717411,-73.999573
1358,Central Park W & W 97 St,27,19,40.79249519495111,-73.96417066463071
1359,W 111 St & 5 Ave,11,10,40.797520781247556,-73.9489397406578
1360,Myrtle Ave & Lewis Ave,8,14,40.69681963,-73.93756926
1361,W 180 St & Ft Washington Ave,6,16,40.849972,-73.938423
1362,W 35 St & 8 Ave,36,20,40.752762088742045,-73.99280458705107
1363,Driggs Ave & Lorimer St,17,7,40.72179134,-73.9504154
1364,Huron St & Franklin St,21,10,40.73266,-73.95826
1365,Broadway & E 19 St,28,16,40.73866091428551,-73.98987293243407
1366,Clark St & Henry St,0,0,40.69760127,-73.99344559
1367,Allen St & Hester St,74,29,40.71605866,-73.99190759
1368,Suydam St & St. Nicholas Ave,13,2,40.70636,-73.91945
1369,Murray St & West St,26,0,40.71503,-74.01246
1370,Stockholm St & Wilson Ave,11,9,40.699304,-73.923044
1371,Jefferson Ave & Evergreen Ave,6,7,40.68989,-73.91458
1372,E 182 St & Morris Ave,4,12,40.85670801831255,-73.90265285968779
1373,7 Ave & 17 St,7,13,40.660937794931684,-73.98680448532104
1374,University Ave & Macombs Rd,18,4,40.8496401,-73.9161206
1375,Rogers Pl & E 165 St,13,6,40.82388366441761,-73.8974027708582
1376,Flatbush Ave & Eastern Pkwy,0,28,40.668757,-73.966438
1377,N Moore St & Hudson St,16,48,40.71996118117138,-74.00844320654869
1378,E Houston St & Columbia St,23,26,40.71978635452822,-73.97871628403664
1379,E 138 St & Park Ave,13,5,40.81263616769319,-73.92924964427948
1380,Prospect Ave & Vanderbilt St,18,1,40.653368,-73.976291
1381,Hoboken Terminal - River St & Hudson Pl,13,27,40.7360676564825,-74.02912706136703
1382,Wakeman Pl & Ridge Blvd,17,1,40.639421,-74.026823
1383,W 211 St & 10 Ave,15,3,40.86709406268147,-73.9172950387001
1384,Madison Ave & E 26 St,4,66,40.742684734875695,-73.98671329021454
1385,St Marks Pl & 1 Ave,66,1,40.72779126,-73.98564945
1386,Sharon St & Olive St,6,15,40.715341620424475,-73.93865078687668
1387,West End Ave & W 94 St,8,20,40.7941654,-73.974124
1388,30 Ave & 12 St,24,8,40.771717105208275,-73.93159255385399
1389,E 35 St & Madison Ave,18,28,40.74848023448579,-73.98255586624146
1390,8 Ave & W 24 St,28,9,40.74591072834279,-73.99807110428809
1391,Columbus Ave & W 95 St,0,31,40.7919557,-73.968087
1392,E 58 St & Madison Ave,11,51,40.76302594280519,-73.97209525108337
1393,8 Ave & W 16 St,8,25,40.740983,-74.001702
1394,W 13 St & 7 Ave,12,31,40.73781509,-73.99994661
1395,Van Dam St & Greenpoint Ave,9,9,40.73443564069459,-73.93790781497955
1396,Bradley Ave & Greenpoint Ave,14,5,40.73565914819229,-73.93478840589523
1397,Borden Ave & Review Ave,7,12,40.73866345465306,-73.94093804061413
1398,31 Pl & Hunters Point Ave,19,0,40.74021356884924,-73.93537044525146
1399,Skillman Ave & 43 Ave,9,7,40.74653761978055,-73.93215849995613
1400,33 St & 47 Ave,18,4,40.74283,-73.9321
1401,W 37 St & Broadway,2,80,40.75227093837409,-73.98770570755005
1402,36 St & Queens Blvd,1,21,40.74408,-73.92901
1403,Skillman Ave & Honeywell St,15,3,40.747148249032804,-73.92902433872223
1404,36 St & 47 Ave,5,13,40.742218349960964,-73.92935156822205
1405,Amsterdam Ave & W 189 St,4,14,40.85318758861975,-73.92715752124786
1406,36 St & Hunters Point Ave,17,2,40.73781699881193,-73.93024072051048
1407,34 St & 48 Ave,0,22,40.740821207823245,-73.93147185444832
1408,39 St & Queens Blvd,0,19,40.74431,-73.92601
1409,39 St & 50 Ave,7,12,40.73824937345944,-73.92737478017807
1410,43 St & Skillman Ave,7,11,40.74692675687384,-73.9208248257637
1411,39 St & 47 Ave,10,9,40.74215636827728,-73.92662644386292
1412,48 Ave & 41 St,4,14,40.73985995699164,-73.92400324344635
1413,42 Pl & Northern Blvd,10,14,40.753091,-73.920603
1414,44 St & 48 Ave,9,12,40.73941387498411,-73.92131969332695
1415,43 Ave & 42 St,7,9,40.74534682580983,-73.9219419658184
1416,43 St & 50 Ave,7,12,40.73787237950538,-73.92264068126678
1417,Kane St & Clinton St,9,18,40.6861758,-73.99645295
1418,Bergen Ave & Sip Ave,14,19,40.73100888698729,-74.06443700194359
1419,50 St & Barnett Ave,7,17,40.750097682094825,-73.91349703073502
1420,48 St & Skillman Ave,5,16,40.74622874694195,-73.91616314649582
1421,46 St & Queens Blvd,1,26,40.74349759836971,-73.91860529780388
1422,51 St & Queens Blvd,3,15,40.7429,-73.91395
1423,48 St & 50 Ave,2,17,40.73737,-73.91803
1424,51 St & 43 Ave,4,20,40.74451,-73.91412
1425,43 Ave & 47 St,16,16,40.7448062877224,-73.91728967428207
1426,W 17 St & 8 Ave,29,42,40.74177603,-74.00149746
1427,Powers St & Olive St,3,14,40.71323,-73.93894
1428,Carlton Ave & Flushing Ave,24,20,40.697787,-73.973736
1429,48 Ave & 37 St,3,16,40.74034668087185,-73.92886072397232
1430,Carlton Ave & Park Ave,14,9,40.69580705,-73.97355569
1431,39 Ave & 54 St,4,14,40.74891,-73.90899
1432,39 Ave & 56 St,5,13,40.74838,-73.90699
1433,Peck Slip & South St,24,16,40.7075188830923,-74.00108054280281
1434,9 Ave & W 204 St,18,6,40.86169883507865,-73.91855701804161
1435,Skillman Ave & 54 St,16,1,40.745502,-73.909887
1436,47 Ave & 48 St,0,18,40.74086,-73.91708
1437,53 St & Roosevelt Ave,8,9,40.74462,-73.91143
1438,39 Dr & 52 St,3,15,40.74732,-73.91197
1439,Queens Blvd & 56 St,2,16,40.74193,-73.90913
1440,57 St & 43 Ave,6,12,40.74324,-73.908
1441,54 St & 37 Ave,14,10,40.75098,-73.90799
1442,55 St & Northern Blvd,5,17,40.75326,-73.90585
1443,W 24 St & 7 Ave,5,68,40.74487634,-73.99529885
1444,Pleasant Ave & E 116 St,20,2,40.7949879,-73.9333349
1445,President St & Henry St,15,9,40.6828003,-73.99990419
1446,West Farms Rd & Boone Ave,10,9,40.8301283948092,-73.88630211353302
1447,E 118 St & 3 Ave,23,5,40.799139,-73.9389152
1448,21 St & 21 Ave,7,13,40.782465,-73.914527
1449,21 St & 23 Ave,13,9,40.778557,-73.919046
1450,39 Ave & 45 St,4,14,40.749478221834764,-73.91826465725897
1451,State St & Smith St,53,11,40.68917,-73.9886
1452,E 17 St & Broadway,39,19,40.73704984,-73.99009296
1453,E 74 St & 1 Ave,29,46,40.7689738,-73.95482273
1454,E 43 St & 2 Ave,30,18,40.75022392,-73.97121414
1455,E 118 St & Park Ave,19,9,40.8005385,-73.9419949
1456,Woodside Ave & 55 St,1,18,40.74679,-73.90893
1457,57 St & 37 Ave,17,4,40.75048,-73.90513
1458,61 St & Woodside Ave,7,10,40.74501,-73.9036
1459,Woodside Ave & 60 St,8,12,40.74521,-73.90462
1460,61 St & 39 Ave,12,14,40.7471,-73.9028
1461,Carlton Ave & St Marks Ave,6,19,40.67911856082165,-73.97176265716553
1462,E 72 St & Park Ave,34,4,40.77118287540658,-73.96409422159195
1463,Grand St & Greene St,4,31,40.72170005235607,-74.00238141417502
1464,30 St & 48 Ave,20,8,40.7413272,-73.937999
1465,E 174 St & Longfellow Ave,17,1,40.836274,-73.884308
1466,Sedgwick Ave & W Tremont Ave,13,6,40.85304455868985,-73.91830623149872
1467,Keegan Rd & 2 Ave,17,15,40.64243139706092,-74.0255355834961
1468,7 Ave & 62 St,29,0,40.63556,-74.01298
1469,Broadway & Berry St,26,5,40.71036129922581,-73.96530389785767
1470,Old Fulton St,35,3,40.70277159,-73.99383605
1471,Eastern Pkwy & Franklin Ave,5,33,40.6707767,-73.9576801
1472,Eastern Pkwy & Washington Ave,7,22,40.6716493,-73.9631145
1473,Plaza St East & Flatbush Ave,4,49,40.673134,-73.969106
1474,Grand St & Elizabeth St,23,19,40.718822,-73.99596
1475,W 46 St & 11 Ave,1,14,40.76341379,-73.99667444
1476,8 Ave & W 49 St,5,55,40.76171227910671,-73.98655101656914
1477,62 St & 34 Ave,9,9,40.75201,-73.89986
1478,62 St & 43 Ave,6,14,40.74261,-73.903
1479,60 St & 37 Ave,15,3,40.74958,-73.90256
1480,37 Ave & 63 St,3,17,40.74893,-73.89981
1481,65 St & 35 Ave,2,20,40.75053,-73.8977
1482,East End Ave & E 86 St,9,16,40.77518615,-73.94446054
1483,Knickerbocker Ave & Moffat St,2,19,40.690434,-73.903737
1484,35 St & 21 Ave,4,19,40.776745,-73.906558
1485,31 St & Astoria Blvd,4,25,40.7699176,-73.9184057
1486,35 St & 23 Ave,14,13,40.77301508291382,-73.91119033098221
1487,65 Pl & Woodside Ave,6,10,40.74334,-73.89903
1488,41 Ave & 67 St,9,9,40.74446,-73.89764
1489,Bergen Ave & E 152 St,12,7,40.817166,-73.914737
1490,65 St & Roosevelt Ave,6,22,40.74589,-73.89915
1491,Nassau Ave & Newell St,30,18,40.724812564400175,-73.94752621650696
1492,61 St & Queens Blvd,16,8,40.74091,-73.90273
1493,61 St & Laurel Hill Blvd,16,2,40.7388,-73.90338
1494,W 17 St & 7 Ave,1,44,40.740564236339516,-73.99852573871613
1495,Church St & Worth St,18,25,40.71688538495366,-74.00650128722191
1496,Jerome Ave & W Fordham Rd,8,15,40.86294,-73.90108
1497,W 47 St & 9 Ave,16,35,40.76153045158114,-73.99007007479668
1498,York St & Marin Blvd,13,5,40.716615000830494,-74.0424120426178
1499,Broadway & W 138 St,12,16,40.82182,-73.95353
1500,E 1 St & Bowery,40,4,40.72486122254819,-73.99213135242462
1501,40 St & Queens Blvd,9,14,40.743540273428685,-73.92435193061829
1502,5 Ave & E 29 St,35,17,40.7451677,-73.98683077
1503,W 45 St & 8 Ave,20,42,40.75929124,-73.98859651
1504,Gramercy Park N & Gramercy Park E,11,34,40.73795,-73.98509
1505,44 St & Greenpoint Ave,1,24,40.741119944681465,-73.92103672027588
1506,W 55 St & 6 Ave,4,69,40.763189,-73.978434
1507,Pearl St & York St,15,39,40.70140463410644,-73.98768022656441
1508,W 56 St & 10 Ave,18,23,40.768254,-73.988639
1509,E 47 St & Park Ave,2,108,40.75510267,-73.97498696
1510,E 47 St & 1 Ave,5,62,40.75206862,-73.96784384
1511,E 44 St & 2 Ave,1,35,40.75118387463277,-73.97138714790344
1512,65 St & Broadway,1,17,40.749372273899596,-73.89738768339157
1513,Woodside Ave & 69 St,13,5,40.7428,-73.89584
1514,1 Ave & E 44 St,17,66,40.75001986,-73.96905301
1515,E 50 St & Park Ave,12,21,40.757334,-73.974235
1516,Malcolm X Blvd & DeKalb Ave,3,18,40.6938,-73.93114
1517,Lewis Ave & Greene Ave,5,18,40.68995,-73.9365
1518,2 Ave & 39 St,16,31,40.655722167971554,-74.01000827550888
1519,Monroe St & Marcus Garvey Blvd,8,11,40.686722,-73.938988
1520,Stuyvesant Ave & Gates Ave,16,7,40.68834,-73.93306
1521,Madison St & Malcolm X Blvd,10,14,40.68713,-73.93008
1522,Hancock St & Stuyvesant Ave,6,12,40.68454,-73.9322
1523,Hancock St & Malcolm X Blvd,5,12,40.68487,-73.9293
1524,Chauncey St & Stuyvesant Ave,7,13,40.68012,-73.93168
1525,Putnam Ave & Ralph Ave,7,11,40.68705,-73.92338
1526,Monroe St & Patchen Ave,15,2,40.68814,-73.92693
1527,Schermerhorn St & Hoyt St,10,29,40.6886263,-73.9851911
1528,Chauncey St & Malcolm X Blvd,1,21,40.68044,-73.92842
1529,Sumpter St & Fulton St,1,18,40.67923,-73.92588
1530,E 165 St & Jerome Ave,14,4,40.83263,-73.925101
1531,E 53 St & 3 Ave,4,32,40.75763227739443,-73.96930575370789
1532,E 7 St & Ave C,12,23,40.72412944090093,-73.97901266813278
1533,E 7 St & Ave B,42,26,40.7251285241158,-73.98131668567657
1534,E 3 St & 1 Ave,25,31,40.72467721,-73.98783413
1535,Schermerhorn St & Court St,28,28,40.6910363748993,-73.99201065301895
1536,Riverside Dr & Broadway,22,1,40.865364,-73.92791
1537,Thomas S. Boyland St & Macon St,13,7,40.68491,-73.91493
1538,Halsey St & Ralph Ave,3,14,40.68494,-73.92299
1539,Chauncey St & Howard Ave,2,19,40.68158,-73.91959
1540,Featherbed Ln & Jerome Ave,20,0,40.845505,-73.914311
1541,Townsend Ave & E 175 St,16,0,40.84741,-73.911359
1542,Buchanan Pl & Grand Ave,0,17,40.85834,-73.90626
1543,Crotona Park North & Prospect Ave,7,9,40.841092,-73.892317
1544,E 7 St & Avenue A,17,26,40.72621788,-73.98379855
1545,Thomas S. Boyland St & Marion St,5,13,40.6814658848122,-73.91415685415268
1546,MacDougal St & Rockaway Ave,4,16,40.68018,-73.91136
1547,Fulton St & Saratoga Ave,8,11,40.67853,-73.91642
1548,Somers St & Rockaway Ave,3,17,40.67872,-73.91105
1549,Thomas S. Boyland St & Fulton St,3,19,40.67854,-73.91367
1550,Van Sinderen Ave & Atlantic Ave,5,17,40.67621,-73.90351
1551,Pitt St & Stanton St,8,5,40.71926081,-73.98178024
1552,St Marks Pl & 2 Ave,65,7,40.7284186,-73.98713956
1553,W 190 St & St. Nicholas Ave,16,12,40.854788,-73.929513
1554,Liberty St & Broadway,38,26,40.70905623,-74.01043382
1555,College Ave & E 169 St,6,12,40.835122799036405,-73.91196817159653
1556,E 19 St & 3 Ave,21,9,40.73624527,-73.98473765
1557,E 58 St & 1 Ave (NE Corner),15,14,40.75892386377695,-73.96226227283478
1558,E 58 St & 1 Ave (NW Corner),24,15,40.759125,-73.962658
1559,JC Medical Center,15,6,40.71539114317,-74.04969155788422
1560,Aqueduct Ave & W 190 St,14,5,40.8649213,-73.9024238
1561,E 17 St & 2 Ave,14,31,40.73431166276575,-73.98372530937195
1562,Prospect Pl & Nostrand Ave,0,20,40.67428,-73.9503
1563,Brevoort Pl & Bedford Ave,13,12,40.68012,-73.95362
1564,Lafayette Ave & Stuyvesant Ave,6,18,40.6919925157634,-73.9325501024723
1565,Cauldwell Ave & E 158 St,2,15,40.81989,-73.908351
1566,MacDonough St & Malcolm X Blvd,6,14,40.68273,-73.92926
1567,Eastern Pkwy & Kingston Ave,16,13,40.66959,-73.94237
1568,Pacific St & Nostrand Ave,7,15,40.6776,-73.94963
1569,E 32 St & Park Ave,5,47,40.7457121,-73.98194829
1570,Whitehall St & Bridge St,39,0,40.703661705241345,-74.0131813287735
1571,Sterling Pl & New York Ave,3,19,40.67234,-73.94763
1572,Stuyvesant Ave & Hart St,7,19,40.69465,-73.9343
1573,Ralph Ave & Fulton St,0,25,40.67922,-73.92192
1574,MacDonough St & Marcy Ave,10,8,40.68078,-73.94613
1575,New York Ave & St Marks Ave,1,22,40.67514,-73.94716
1576,Herkimer St & New York Ave,17,7,40.67955,-73.94709
1577,Brooklyn Ave & Prospect Pl,0,24,40.67412,-73.94447
1578,Kingston Ave & Park Pl,2,17,40.67308,-73.94191
1579,St. Johns Pl & Kingston Ave,4,16,40.67113,-73.94222
1580,6 St & 7 Ave,1,20,40.6686627,-73.97988067
1581,9 Ave & W 39 St,0,32,40.756403523272496,-73.99410143494606
1582,Knickerbocker Ave & Hancock St,0,21,40.69385,-73.90974
1583,Decatur St & Saratoga Ave,9,11,40.68332,-73.91711
1584,Bergen St & Kingston Ave,1,19,40.6756,-73.9415
1585,Albany Ave & Park Pl,4,13,40.67297,-73.93896
1586,Bergen St & Troy Ave,15,5,40.67524,-73.93596
1587,Pacific St & Troy Ave,2,17,40.67686,-73.93607
1588,Schenectady Ave & Prospect Pl,2,16,40.67351,-73.93363
1589,Pacific St & Utica Ave,19,1,40.6767,-73.93051
1590,Eastern Pkwy & Troy Ave,0,24,40.66929,-73.93679
1591,River Ter & Warren St,26,41,40.71759894980997,-74.01587963104248
1592,E 15 St & 3 Ave,40,23,40.734232,-73.986923
1593,Main St & Plymouth St,21,20,40.703781673548306,-73.99073392152786
1594,Macon St & Howard Ave,7,13,40.68452,-73.92011
1595,Pacific St & Rochester Ave,4,13,40.67639,-73.92748
1596,St Johns Pl & Utica Ave,1,20,40.6705,-73.9308
1597,Macon St & Patchen Ave,3,16,40.68374,-73.9261
1598,Park Pl & Utica Ave,1,20,40.67242,-73.93094
1599,St Marks Ave & Rochester Ave,0,19,40.67404,-73.92772
1600,6 Ave & W 34 St,7,55,40.74964,-73.98805
1601,Eastern Pkwy & Rochester Ave,8,16,40.66846,-73.9282
1602,Sterling Pl & Schenectady Ave,2,17,40.6716,-73.93378
1603,6 Ave & W 45 St,16,44,40.756951,-73.982631
1604,Macon St & Lewis Ave,6,12,40.68282,-73.93488
1605,Bergen St & Buffalo Ave,13,5,40.6747,-73.92512
1606,Sterling Pl & Rochester Ave,0,21,40.67128,-73.92825
1607,Park Pl & Buffalo Ave,5,14,40.67202,-73.92539
1608,St Marks Ave & Ralph Ave,0,19,40.67372,-73.92199
1609,Classon Ave & St Marks Ave,1,24,40.676513,-73.959431
1610,Prospect Pl & Howard Ave,0,19,40.67261,-73.91977
1611,Market St & Henry St,18,23,40.71310702305908,-73.99446353316307
1612,Central Park West & W 72 St,35,12,40.77579376683666,-73.9762057363987
1613,Central Park West & W 68 St,29,8,40.7734066,-73.97782542
1614,31 St & Thomson Ave,34,11,40.74469738,-73.93540375
1615,8 St & Washington St,7,13,40.745983882915624,-74.02819901704788
1616,Columbus Park - Clinton St & 9 St,1,24,40.74816121065146,-74.0324530005455
1617,Howard St & Lafayette St,15,8,40.71910537,-73.99973337
1618,W 82 St & Central Park West,24,12,40.78275,-73.97137
1619,Buffalo Ave & St Johns Pl,2,18,40.67015,-73.92538
1620,Eastern Pkwy & Ralph Ave,2,19,40.66852,-73.92284
1621,Central Park West & W 76 St,24,13,40.77896784,-73.97374737
1622,Sterling Pl & Ralph Ave,1,16,40.67095,-73.92222
1623,Greenwich St & Rector St,32,4,40.70806582380646,-74.0135595202446
1624,Bergen St & Saratoga Ave,5,14,40.67423,-73.91656
1625,Pacific St & Thomas S. Boyland St,3,18,40.67568,-73.91396
1626,Herkimer St & Eastern Pkwy,2,17,40.67738,-73.90829
1627,2 Ave & 44 St,0,18,40.65230357303063,-74.01344954967499
1628,Macombs Pl & W 152 St,25,2,40.826406,-73.937948
1629,2 Ave & 43 St,17,2,40.65292829363811,-74.01286482810974
1630,Wyckoff St & 3 Ave,13,8,40.6827549,-73.98258555
1631,Underhill Ave & Pacific St,6,19,40.6804836,-73.9646795
1632,E 4 St & Ave B,24,8,40.723346832180155,-73.98265913128853
1633,E 6 St & 2 Ave,48,19,40.727378693232225,-73.98840844631195
1634,Columbus Pl & Atlantic Ave,1,19,40.67717,-73.92285
1635,Park Pl & Thomas S. Boyland St,13,8,40.67154,-73.91433
1636,3 Ave & 14 St,11,13,40.6685455,-73.99333264
1637,Fulton St & Adams St,13,29,40.692418292578466,-73.98949474096298
1638,Troy Ave & Park Pl,1,18,40.67251,-73.93642
1639,W 40 St & 7 Ave,6,37,40.754818,-73.988154
1640,Pearl St & Hanover Square,30,35,40.7047177,-74.00926027
1641,Grove St PATH,26,16,40.71941,-74.04309
1642,Lincoln Pl & Nostrand Ave,3,21,40.67077,-73.9507
1643,Lexington Ave & Stuyvesant Ave,3,16,40.68973,-73.93353
1644,Schenectady Ave & Pacific St,13,5,40.67686,-73.93327
1645,Broadway & W 48 St,11,78,40.76017739537783,-73.98486793041229
1646,Carroll St & Rochester Ave,18,2,40.66598,-73.9284
1647,Bergen St & Mother Gaston Blvd,11,13,40.67374,-73.90852
1648,Pacific St & Smith St,18,29,40.687880939612775,-73.98939281702042
1649,Buffalo Ave & E New York Ave,21,2,40.66591,-73.92602
1650,St Johns Pl & Howard Ave,13,8,40.66992,-73.92002
1651,St Marks Ave & Thomas S. Boyland St,2,18,40.67313,-73.91387
1652,Dean St & Rockaway Ave,1,20,40.67486,-73.91123
1653,Tompkins Ave & Hopkins St,13,3,40.69957608,-73.94708417
1654,Putnam Ave & Nostrand Ave,6,10,40.68402,-73.94977
1655,Pier 40 - Hudson River Park,13,1,40.7277140777778,-74.01129573583603
1656,69 St & 38 Ave,8,15,40.74694504524519,-73.89650255441666
1657,64 St & 51 Ave,17,2,40.73577,-73.90184
1658,E 5 St & Cooper Sq,34,14,40.72769,-73.990993
1659,33 St & Queens Blvd,6,16,40.7443653191867,-73.93172398209572
1660,51 Ave & 61 St,18,0,40.73568,-73.90387
1661,Tyler Ave & Maurice Ave,15,2,40.73394,-73.90128
1662,Broadway & W 122 St,23,6,40.8120562,-73.9612547
1663,Washington Ave & E 167 St,14,5,40.829896,-73.907618
1664,Myrtle Ave & 65 St,2,14,40.70117,-73.8904
1665,E 76 St & Park Ave,17,6,40.773763,-73.96222088
1666,65 St & Otto Rd,5,15,40.70389,-73.89116
1667,Cypress Hills St & Otto Rd,3,16,40.70204,-73.89288
1668,55 Dr & Maurice Ave,16,0,40.7261,-73.90917
1669,Bleecker St & Forest Ave,2,17,40.7107,-73.90525
1670,Ave C & E 16 St,13,17,40.72984830346529,-73.97455215454102
1671,60 Pl & Linden St,10,8,40.70886,-73.90182
1672,71 Ave & Myrtle Ave,4,22,40.70067,-73.89907
1673,E 58 St & 3 Ave,25,17,40.76095756,-73.96724467
1674,Summerfield St & Cypress Ave,1,18,40.69662,-73.90056
1675,Wyckoff Ave & Cooper Ave,3,14,40.69338,-73.90061
1676,E 56 St & 3 Ave,24,54,40.75934501,-73.96759673
1677,Amory Ct & Metropolitan Ave,10,11,40.71301,-73.90968
1678,St Felix Ave & 61 St,12,4,40.69715,-73.8936
1679,Metropolitan Ave & Flushing Ave,1,18,40.71334,-73.91572
1680,Hudson Blvd W & W 36 St,0,45,40.75676475086503,-73.99971440439913
1681,67 Ave & Fresh Pond Rd,6,24,40.70575,-73.89676
1682,Cooper Ave & 65 Pl,8,14,40.69953,-73.88873
1683,E 2 St & 2 Ave,69,11,40.72502876,-73.99069656
1684,60 St & 60 Rd,11,8,40.71592232709503,-73.90601366758347
1685,59 St & 59 Rd,0,21,40.71790852734058,-73.908454477787
1686,64 St & Woodbine St,12,5,40.70809,-73.89549
1687,Fresh Pond Rd & Eliot Ave,1,18,40.71453,-73.90105
1688,57 St & Grand Ave,8,11,40.71921,-73.9124
1689,Page Pl & Grand Ave,6,15,40.71798,-73.91818
1690,57 Rd & 58 St,19,2,40.72235,-73.91215
1691,63 St & 59 Dr,17,3,40.71832,-73.90128
1692,E 43 St & Madison Ave,11,40,40.75354681867074,-73.97896572947502
1693,Amsterdam Ave & W 82 St,11,24,40.78524672,-73.97667321
1694,60 Pl & 67 Ave,1,13,40.70497,-73.89965
1695,53 St & Flushing Ave,0,16,40.71435,-73.91405
1696,Fresh Pond Rd & 69 Ave,2,26,40.70311,-73.89547
1697,Maurice Ave & 53 Dr,15,0,40.73028,-73.90421
1698,Fresh Pond Rd & Flushing Ave,11,8,40.72155,-73.90295
1699,56 Dr & 61 St,13,5,40.72368,-73.90458
1700,56 Dr & 59 St,7,12,40.72403,-73.90853
1701,57 Rd & 59 St,14,3,40.72249,-73.90854
1702,60 Ave & Fresh Pond Rd,13,6,40.71693,-73.90198
1703,Catalpa Ave & Woodward Ave,6,13,40.70229,-73.90145
1704,Grand Ave & 55 St,10,7,40.71888,-73.91427
1705,Cypress Ave & St Felix Ave,13,7,40.69559,-73.89927
1706,Palmetto St & Traffic Ave,3,17,40.70929,-73.89441
1707,Metropolitan Ave & 65 Ln,22,3,40.71225,-73.89111
1708,64 St & 53 Dr,17,1,40.72897,-73.90115
1709,Seneca Ave & Decatur St,3,17,40.69723,-73.89811
1710,Grand Ave & Remsen Pl,19,1,40.72353,-73.89967
1711,Eastern Pkwy & Brooklyn Ave,6,14,40.66939,-73.94514
1712,Eastern Pkwy & Schenectady Ave,1,20,40.66876,-73.93376
1713,Eastern Pkwy & Nostrand Ave,1,24,40.66967,-73.9503
1714,Kingston Ave & Carroll St,1,18,40.66688,-73.9425
1715,Empire Blvd & New York Ave,1,21,40.66403,-73.94769
1716,Albany Ave & Carroll St,3,15,40.6667,-73.93972
1717,Sterling St & Nostrand Ave,3,18,40.66318,-73.95076
1718,Kingston Ave & Montgomery St,0,15,40.66481,-73.94269
1719,Carroll St & Utica Ave,8,10,40.66619,-73.93162
1720,Rogers Ave & Lincoln Rd,9,13,40.66127,-73.95352
1721,Maple St & Flatbush Ave,22,1,40.66026,-73.96045
1722,Bedford Ave & Maple St,19,1,40.66035,-73.95679
1723,2 St & Park Ave,2,13,40.73915272763701,-74.0330819785595
1724,Flatbush Ave & Fenimore St,15,7,40.65798,-73.96051
1725,Lincoln Rd & Ocean Ave,18,1,40.6605,-73.9626
1726,Parkside Ave & Flatbush Ave,21,4,40.65563,-73.95968
1727,Nostrand Ave & Rutland Rd,14,5,40.6595,-73.95041
1728,Bedford Ave & Clarkson Ave,17,4,40.65519,-73.9564
1729,Winthrop St & Nostrand Ave,23,1,40.65707,-73.95005
1730,Bedford Ave & Fenimore St,19,1,40.65815,-73.95674
1731,Crown St & Rogers Ave,4,14,40.66639,-73.95346
1732,Schenectady Ave & President St,2,19,40.66732,-73.93398
1733,Patchen Ave & Bainbridge St,3,15,40.68143,-73.92565
1734,Winthrop St & Rogers Ave,12,7,40.65686,-73.95331
1735,Maple St & New York Ave,15,5,40.66104,-73.94795
1736,New York Ave & Hawthorne St,15,4,40.65794,-73.94735
1737,Maple St & Albany Ave,11,4,40.66155,-73.93974
1738,W 25 St & 9 Ave,2,58,40.747832605837715,-74.0005722643582
1739,W 20 St & 5 Ave,25,30,40.73972989238724,-73.99103969335556
1740,E New York Ave & Troy Ave,18,2,40.66227,-73.93762
1741,Midwood St & Utica Ave,19,2,40.66124,-73.93164
1742,Schenectady Ave & Maple St,15,4,40.66178,-73.93445
1743,Rutland Rd & E 45 St,20,3,40.66034,-73.93618
1744,Clarkson Ave & Utica Ave,17,1,40.65666,-73.93109
1745,Lewis Ave & Fulton St,6,14,40.67972,-73.93467
1746,Fulton St & Williams Ave,20,1,40.67709,-73.9008
1747,Degraw St & 3 Ave,28,4,40.67977,-73.9847
1748,50 Ave & 65 St,17,2,40.73707,-73.90077
1749,56 St & Arnold Ave,2,16,40.71484,-73.909
1750,Eliot Ave & 60 Ln,3,18,40.71391,-73.90299
1751,57 St & 7 Ave,1,21,40.638566,-74.010147
1752,Walton Ave & E 176 St,7,11,40.84833,-73.90971
1753,Lafayette St & Grand St,35,0,40.72028,-73.99879
1754,Exchange Pl,9,20,40.71636596185077,-74.034343957901
1755,23 St & 31 Ave,9,9,40.76663971723091,-73.9286595582962
1756,Pacific St & Ralph Ave,1,18,40.67607,-73.92171
1757,Goble Pl & Macombs Rd,12,7,40.844075,-73.917256
